[
  {
    "id": 5901012203,
    "name": "博荃藥局",
    "phone": "02-27316736",
    "address": "台北市松山區中正里18鄰敦化北路4巷51號",
    "lat": 25.050063,
    "lng": 121.544742,
    "note": "如遇國定連續假期,藥局公休"
  },
  {
    "id": 5901012383,
    "name": "德川中西藥局",
    "phone": "02-27683399",
    "address": "台北市松山區復盛里17鄰八德路四段96號",
    "lat": 25.04836,
    "lng": 121.56066,
    "note": ""
  },
  {
    "id": 5901012409,
    "name": "家音藥局",
    "phone": "02-37652080",
    "address": "台北市松山區東榮里7鄰民生東路五段73號",
    "lat": 25.058709,
    "lng": 121.558489,
    "note": "早上9:00到晚上11:00"
  },
  {
    "id": 5901012454,
    "name": "敦北藥局",
    "phone": "02-27155691",
    "address": "台北市松山區東昌里10鄰民生東路四段80巷5號",
    "lat": 25.057129,
    "lng": 121.553125,
    "note": ""
  },
  {
    "id": 5901012490,
    "name": "中美藥局",
    "phone": "02-27627468",
    "address": "台北市松山區新益里17鄰富錦街531號",
    "lat": 25.061285,
    "lng": 121.565481,
    "note": "營業時間如有異動,以藥局公告為準"
  },
  {
    "id": 5901012507,
    "name": "康麗藥局",
    "phone": "02-27174117",
    "address": "台北市松山區中正里22鄰南京東路三段303巷20號",
    "lat": 25.05369,
    "lng": 121.546826,
    "note": "春節營業時間請電洽"
  },
  {
    "id": 5901012516,
    "name": "惠登藥局",
    "phone": "02-25472432",
    "address": "台北市松山區松基里8鄰民生東路三段130巷34號",
    "lat": 25.056198,
    "lng": 121.546113,
    "note": ""
  },
  {
    "id": 5901012561,
    "name": "松田藥局",
    "phone": "02-25798005",
    "address": "台北市松山區吉仁里2鄰延吉街9之6號",
    "lat": 25.047007,
    "lng": 121.55355,
    "note": ""
  },
  {
    "id": 5901012570,
    "name": "予志藥局",
    "phone": "02-27623522",
    "address": "台北市松山區富錦里16鄰富錦街521號",
    "lat": 25.061186,
    "lng": 121.564944,
    "note": ""
  },
  {
    "id": 5901012598,
    "name": "婕登藥局",
    "phone": "02-27482893",
    "address": "台北市松山區慈祐里20鄰八德路四段699號",
    "lat": 25.050207,
    "lng": 121.576644,
    "note": ""
  },
  {
    "id": 5901012632,
    "name": "晨安藥局",
    "phone": "02-25798460",
    "address": "台北市松山區復勢里7鄰八德路三段155巷20弄2號",
    "lat": 25.049137,
    "lng": 121.555326,
    "note": ""
  },
  {
    "id": 5901012650,
    "name": "銘德藥局",
    "phone": "02-27511833",
    "address": "台北市松山區中崙里10鄰八德路二段366巷28號",
    "lat": 25.047242,
    "lng": 121.545925,
    "note": ""
  },
  {
    "id": 5901012669,
    "name": "政昇藥局",
    "phone": "02-27560286",
    "address": "台北市松山區新聚里3鄰南京東路五段356號",
    "lat": 25.051063,
    "lng": 121.569691,
    "note": ""
  },
  {
    "id": 5901012712,
    "name": "立康大藥局",
    "phone": "02-27471749",
    "address": "台北市松山區復盛里1鄰八德路四段2之1號",
    "lat": 25.048117,
    "lng": 121.558111,
    "note": ""
  },
  {
    "id": 5901012749,
    "name": "躍獅松和藥局",
    "phone": "02-27492569",
    "address": "台北市松山區慈祐里18鄰八德路四段666之1號",
    "lat": 25.04979,
    "lng": 121.576092,
    "note": ""
  },
  {
    "id": 5901012758,
    "name": "京東藥局",
    "phone": "02-27679503",
    "address": "台北市松山區新聚里10鄰南京東路五段272號",
    "lat": 25.05114,
    "lng": 121.566945,
    "note": ""
  },
  {
    "id": 5901012767,
    "name": "晨新藥局",
    "phone": "02-27422951",
    "address": "台北市松山區吉祥里23鄰八德路四段91巷1之1號",
    "lat": 25.048944,
    "lng": 121.560761,
    "note": ""
  },
  {
    "id": 5901012918,
    "name": "躍獅京華藥局",
    "phone": "02-27666508",
    "address": "台北市松山區東光里23鄰南京東路五段71號",
    "lat": 25.051715,
    "lng": 121.559562,
    "note": ""
  },
  {
    "id": 5901012963,
    "name": "綠之家藥局",
    "phone": "02-25289595",
    "address": "台北市松山區龍田里10鄰延壽街428號",
    "lat": 25.056197,
    "lng": 121.556217,
    "note": ""
  },
  {
    "id": 5901013004,
    "name": "德安藥局",
    "phone": "02-25782670",
    "address": "台北市松山區復勢里1鄰八德路三段195號",
    "lat": 25.048163,
    "lng": 121.55619,
    "note": ""
  },
  {
    "id": 5901013095,
    "name": "康采藥局",
    "phone": "02-27670271",
    "address": "台北市松山區安平里20鄰南京東路五段291巷17之2號",
    "lat": 25.052363,
    "lng": 121.566253,
    "note": ""
  },
  {
    "id": 5901013120,
    "name": "誠康中西藥局",
    "phone": "02-27619679",
    "address": "台北市松山區東光里15鄰南京東路五段59巷31弄43號",
    "lat": 25.053458,
    "lng": 121.560723,
    "note": ""
  },
  {
    "id": 5901013139,
    "name": "慶昌藥局",
    "phone": "02-25770820",
    "address": "台北市松山區吉仁里3鄰延吉街29號",
    "lat": 25.045949,
    "lng": 121.553706,
    "note": ""
  },
  {
    "id": 5901013148,
    "name": "唯康藥局",
    "phone": "02-25775000",
    "address": "台北市松山區復勢里13鄰八德路三段211號",
    "lat": 25.048196,
    "lng": 121.556637,
    "note": ""
  },
  {
    "id": 5901013157,
    "name": "西松健康人生藥局",
    "phone": "02-27687807",
    "address": "台北市松山區安平里21鄰南京東路五段291巷7號",
    "lat": 25.052005,
    "lng": 121.566247,
    "note": ""
  },
  {
    "id": 5901013175,
    "name": "台北長庚維康藥局",
    "phone": "02-27199386",
    "address": "台北市松山區中華里3鄰敦化北路199巷2弄1號",
    "lat": 25.055737,
    "lng": 121.550039,
    "note": ""
  },
  {
    "id": 5901013200,
    "name": "專品南京藥局",
    "phone": "02-25147685",
    "address": "台北市松山區東勢里15鄰南京東路四段73號",
    "lat": 25.051846,
    "lng": 121.553167,
    "note": ""
  },
  {
    "id": 5901013246,
    "name": "芝欣藥局",
    "phone": "02-25706677",
    "address": "台北市松山區復源里11鄰八德路三段148號",
    "lat": 25.047992,
    "lng": 121.554815,
    "note": ""
  },
  {
    "id": 5901013264,
    "name": "佑翔藥局",
    "phone": "02-87875050",
    "address": "台北市松山區東榮里7鄰民生東路五段95號",
    "lat": 25.058805,
    "lng": 121.55969,
    "note": ""
  },
  {
    "id": 5901013308,
    "name": "立赫敦北藥局",
    "phone": "02-27199277",
    "address": "台北市松山區民有里14鄰敦化北路222巷20號",
    "lat": 25.059447,
    "lng": 121.547743,
    "note": ""
  },
  {
    "id": 5901013317,
    "name": "延壽盛康藥局",
    "phone": "02-25182229",
    "address": "台北市松山區富泰里1鄰延壽街111號",
    "lat": 25.057113,
    "lng": 121.565349,
    "note": ""
  },
  {
    "id": 5901013326,
    "name": "富景藥局",
    "phone": "02-27455666",
    "address": "台北市松山區三民里27鄰三民路145號",
    "lat": 25.060785,
    "lng": 121.563097,
    "note": ""
  },
  {
    "id": 5901013344,
    "name": "健康活力藥師藥局",
    "phone": "02-27455556",
    "address": "台北市松山區新東里17鄰民生東路五段219號",
    "lat": 25.05931,
    "lng": 121.56693,
    "note": ""
  },
  {
    "id": 5901013362,
    "name": "啄木鳥藥局",
    "phone": "02-27422413",
    "address": "台北市松山區吉祥里1鄰八德路四段209號",
    "lat": 25.048937,
    "lng": 121.563957,
    "note": ""
  },
  {
    "id": 5901013371,
    "name": "玖田藥局",
    "phone": "02-27666578",
    "address": "台北市松山區慈祐里17鄰八德路四段655號",
    "lat": 25.050178,
    "lng": 121.575529,
    "note": ""
  },
  {
    "id": 5901013380,
    "name": "澄馨藥局",
    "phone": "02-27420159",
    "address": "台北市松山區自強里22鄰三民路37號",
    "lat": 25.055801,
    "lng": 121.563524,
    "note": ""
  },
  {
    "id": 5901013399,
    "name": "一安正昇藥局",
    "phone": "02-27680993",
    "address": "台北市松山區新聚里7鄰南京東路五段348號",
    "lat": 25.051077,
    "lng": 121.569309,
    "note": ""
  },
  {
    "id": 5901013406,
    "name": "美優康藥局",
    "phone": "02-27152319",
    "address": "台北市松山區精忠里6鄰民生東路四段117之1號",
    "lat": 25.058242,
    "lng": 121.553314,
    "note": ""
  },
  {
    "id": 5901013433,
    "name": "杏一延吉藥局",
    "phone": "02-25798450",
    "address": "台北市松山區吉仁里8鄰延吉街32號",
    "lat": 25.046075,
    "lng": 121.553504,
    "note": "國定假日有提供藥事服務業務"
  },
  {
    "id": 5901013442,
    "name": "松山八德藥局",
    "phone": "02-27782773",
    "address": "台北市松山區中崙里7鄰八德路二段400號",
    "lat": 25.048043,
    "lng": 121.54657,
    "note": "國定假日有執行調劑業務"
  },
  {
    "id": 5901013451,
    "name": "新德大藥局",
    "phone": "02-27673402",
    "address": "台北市松山區慈祐里20鄰饒河街204號",
    "lat": 25.050743,
    "lng": 121.577035,
    "note": ""
  },
  {
    "id": 5901013460,
    "name": "光點延新藥局",
    "phone": "02-27667795",
    "address": "台北市松山區富泰里1鄰延壽街101號",
    "lat": 25.057162,
    "lng": 121.56597,
    "note": ""
  },
  {
    "id": 5901013488,
    "name": "欣生藥局",
    "phone": "02-27567611",
    "address": "台北市松山區三民里11鄰民生東路五段138巷1號",
    "lat": 25.058532,
    "lng": 121.561699,
    "note": ""
  },
  {
    "id": 5901013497,
    "name": "民生盛康藥局",
    "phone": "02-27460758",
    "address": "台北市松山區富泰里15鄰民生東路五段204號",
    "lat": 25.058258,
    "lng": 121.56477,
    "note": ""
  },
  {
    "id": 5901013504,
    "name": "杏一台北長庚藥局",
    "phone": "02-25149463",
    "address": "台北市松山區中華里3鄰敦化北路199巷2弄3號",
    "lat": 25.055685,
    "lng": 121.550038,
    "note": ""
  },
  {
    "id": 5901013513,
    "name": "立赫民生藥局",
    "phone": "02-27139200",
    "address": "台北市松山區精忠里3鄰民生東路四段68號",
    "lat": 25.057856,
    "lng": 121.55223,
    "note": ""
  },
  {
    "id": 5901013522,
    "name": "大樹松山藥局",
    "phone": "02-27562226",
    "address": "台北市松山區東榮里7鄰民生東路五段107號",
    "lat": 25.058776,
    "lng": 121.560139,
    "note": ""
  },
  {
    "id": 5901020296,
    "name": "百立藥局",
    "phone": "02-27327211",
    "address": "台北市大安區芳和里15鄰和平東路三段228巷66號",
    "lat": 25.020995,
    "lng": 121.553407,
    "note": ""
  },
  {
    "id": 5901020303,
    "name": "宏恩藥局",
    "phone": "02-27000956",
    "address": "台北市大安區德安里13鄰大安路一段181號",
    "lat": 25.036188,
    "lng": 121.546113,
    "note": ""
  },
  {
    "id": 5901020376,
    "name": "靜園藥局",
    "phone": "02-27336390",
    "address": "台北市大安區龍淵里4鄰和平東路二段118巷57之1號",
    "lat": 25.022541,
    "lng": 121.542921,
    "note": ""
  },
  {
    "id": 5901020385,
    "name": "延吉大藥局",
    "phone": "02-27819227",
    "address": "台北市大安區正聲里13鄰延吉街153號",
    "lat": 25.040657,
    "lng": 121.554791,
    "note": ""
  },
  {
    "id": 5901020456,
    "name": "北陸藥局",
    "phone": "02-27323594",
    "address": "台北市大安區黎孝里15鄰和平東路三段278號",
    "lat": 25.020998,
    "lng": 121.555866,
    "note": ""
  },
  {
    "id": 5901020465,
    "name": "杏友藥局",
    "phone": "02-27079451",
    "address": "台北市大安區龍雲里8鄰復興南路二段151巷25號",
    "lat": 25.028469,
    "lng": 121.544635,
    "note": ""
  },
  {
    "id": 5901020554,
    "name": "師大藥局",
    "phone": "02-23623479",
    "address": "台北市大安區古風里3鄰師大路99號",
    "lat": 25.02271,
    "lng": 121.528509,
    "note": ""
  },
  {
    "id": 5901020563,
    "name": "施寶藥局",
    "phone": "02-27114175",
    "address": "台北市大安區誠安里7鄰安東街50之5號",
    "lat": 25.042768,
    "lng": 121.54256,
    "note": ""
  },
  {
    "id": 5901020590,
    "name": "燕福藥局",
    "phone": "02-23627307",
    "address": "台北市大安區大學里24鄰羅斯福路三段283巷14弄14之3號",
    "lat": 25.018166,
    "lng": 121.532433,
    "note": ""
  },
  {
    "id": 5901020616,
    "name": "龍護大藥局",
    "phone": "02-23250686",
    "address": "台北市大安區仁慈里4鄰大安路一段224巷7號",
    "lat": 25.034014,
    "lng": 121.545445,
    "note": ""
  },
  {
    "id": 5901020634,
    "name": "新廣生藥局",
    "phone": "02-27071221",
    "address": "台北市大安區德安里18鄰仁愛路四段34號",
    "lat": 25.03762,
    "lng": 121.546722,
    "note": ""
  },
  {
    "id": 5901020652,
    "name": "寶德藥局",
    "phone": "02-27364240",
    "address": "台北市大安區法治里5鄰樂利路105號",
    "lat": 25.025124,
    "lng": 121.552389,
    "note": ""
  },
  {
    "id": 5901020661,
    "name": "泰佑藥局",
    "phone": "02-27056841",
    "address": "台北市大安區義安里15鄰安和路二段72號",
    "lat": 25.030107,
    "lng": 121.551733,
    "note": ""
  },
  {
    "id": 5901020670,
    "name": "杏安堂藥局",
    "phone": "02-27517636",
    "address": "台北市大安區光武里7鄰忠孝東路四段77巷30號",
    "lat": 25.042921,
    "lng": 121.547142,
    "note": ""
  },
  {
    "id": 5901020689,
    "name": "四維藥局",
    "phone": "02-27094222",
    "address": "台北市大安區龍雲里14鄰復興南路二段151巷43號",
    "lat": 25.028455,
    "lng": 121.545447,
    "note": "假日可先打電話聯絡"
  },
  {
    "id": 5901020698,
    "name": "羅斯福藥局",
    "phone": "02-23699606",
    "address": "台北市大安區大學里13鄰羅斯福路三段283巷9弄3號",
    "lat": 25.019031,
    "lng": 121.531295,
    "note": ""
  },
  {
    "id": 5901020732,
    "name": "赫慶藥局",
    "phone": "02-27063497",
    "address": "台北市大安區龍圖里14鄰瑞安街208巷11弄5號",
    "lat": 25.02866,
    "lng": 121.540809,
    "note": ""
  },
  {
    "id": 5901020787,
    "name": "吉成藥局",
    "phone": "02-23636475",
    "address": "台北市大安區龍坡里14鄰泰順街7號",
    "lat": 25.025568,
    "lng": 121.531585,
    "note": ""
  },
  {
    "id": 5901020858,
    "name": "順天堂藥局",
    "phone": "02-23627149",
    "address": "台北市大安區古風里3鄰龍泉街96號",
    "lat": 25.022564,
    "lng": 121.529203,
    "note": ""
  },
  {
    "id": 5901020876,
    "name": "大興藥局",
    "phone": "02-27053369",
    "address": "台北市大安區通化里17鄰通化街39巷50弄15號",
    "lat": 25.030555,
    "lng": 121.555477,
    "note": ""
  },
  {
    "id": 5901020901,
    "name": "辰安藥局",
    "phone": "02-27119536",
    "address": "台北市大安區光武里11鄰大安路一段31巷28號",
    "lat": 25.043848,
    "lng": 121.547181,
    "note": ""
  },
  {
    "id": 5901021122,
    "name": "青康藥局",
    "phone": "02-27086623",
    "address": "台北市大安區光信里25鄰延吉街248號",
    "lat": 25.035316,
    "lng": 121.555681,
    "note": ""
  },
  {
    "id": 5901021248,
    "name": "永誠藥局",
    "phone": "02-27520273",
    "address": "台北市大安區車層里14鄰忠孝東路四段216巷25之1號",
    "lat": 25.039967,
    "lng": 121.553063,
    "note": ""
  },
  {
    "id": 5901021346,
    "name": "正昌藥局",
    "phone": "02-27540070",
    "address": "台北市大安區通安里7鄰通化街38巷9號",
    "lat": 25.030983,
    "lng": 121.553716,
    "note": ""
  },
  {
    "id": 5901023304,
    "name": "麗樺藥師藥局",
    "phone": "02-23952628",
    "address": "台北市大安區永康里4鄰麗水街3號",
    "lat": 25.032246,
    "lng": 121.529038,
    "note": ""
  },
  {
    "id": 5901023313,
    "name": "安和藥局",
    "phone": "02-27092349",
    "address": "台北市大安區敦安里3鄰安和路一段102巷3號",
    "lat": 25.034332,
    "lng": 121.551941,
    "note": ""
  },
  {
    "id": 5901023331,
    "name": "佑安藥局",
    "phone": "02-27069339",
    "address": "台北市大安區光信里10鄰延吉街233巷9號",
    "lat": 25.037083,
    "lng": 121.55613,
    "note": ""
  },
  {
    "id": 5901023386,
    "name": "弘昇藥局",
    "phone": "02-27110061",
    "address": "台北市大安區光武里24鄰復興南路一段107巷32號",
    "lat": 25.043494,
    "lng": 121.545787,
    "note": "上午11點以後至晚上11點"
  },
  {
    "id": 5901023411,
    "name": "長虹藥局",
    "phone": "02-27210232",
    "address": "台北市大安區車層里22鄰忠孝東路四段216巷63號",
    "lat": 25.038204,
    "lng": 121.553058,
    "note": ""
  },
  {
    "id": 5901023519,
    "name": "惠盈藥局",
    "phone": "02-87321366",
    "address": "台北市大安區龍淵里13鄰辛亥路二段171巷31號",
    "lat": 25.022971,
    "lng": 121.541193,
    "note": ""
  },
  {
    "id": 5901023523,
    "name": "聯合仁愛藥局",
    "phone": "02-27039269",
    "address": "台北市大安區德安里18鄰大安路一段157巷3號",
    "lat": 25.037308,
    "lng": 121.546319,
    "note": ""
  },
  {
    "id": 5901023591,
    "name": "一心藥局",
    "phone": "02-27321818",
    "address": "台北市大安區黎孝里1鄰和平東路三段238號",
    "lat": 25.021906,
    "lng": 121.554876,
    "note": "星期日"
  },
  {
    "id": 5901023653,
    "name": "信安健康藥局",
    "phone": "02-27084858",
    "address": "台北市大安區敦安里15鄰仁愛路四段122巷58號",
    "lat": 25.033923,
    "lng": 121.550117,
    "note": ""
  },
  {
    "id": 5901023680,
    "name": "新富川藥局",
    "phone": "02-27114758",
    "address": "台北市大安區光武里7鄰大安路一段51巷4號",
    "lat": 25.043029,
    "lng": 121.546392,
    "note": "無提供急診服務"
  },
  {
    "id": 5901023706,
    "name": "聖英藥局",
    "phone": "02-27055851",
    "address": "台北市大安區敦煌里16鄰仁愛路四段266巷15弄18號",
    "lat": 25.036542,
    "lng": 121.553997,
    "note": ""
  },
  {
    "id": 5901023724,
    "name": "元氣生活健保藥局",
    "phone": "02-27060580",
    "address": "台北市大安區民炤里12鄰新生南路一段161巷10號",
    "lat": 25.034545,
    "lng": 121.534662,
    "note": ""
  },
  {
    "id": 5901023831,
    "name": "康乃馨藥局",
    "phone": "02-23257097",
    "address": "台北市大安區和安里21鄰建國南路一段327號",
    "lat": 25.034806,
    "lng": 121.538211,
    "note": "週一至週六09:00-21:00"
  },
  {
    "id": 5901023886,
    "name": "世康藥局",
    "phone": "02-27015758",
    "address": "台北市大安區光信里23鄰延吉街246號",
    "lat": 25.035492,
    "lng": 121.555605,
    "note": ""
  },
  {
    "id": 5901023902,
    "name": "惠良藥局",
    "phone": "02-27387872",
    "address": "台北市大安區全安里5鄰和平東路三段93之1號",
    "lat": 25.024615,
    "lng": 121.550727,
    "note": ""
  },
  {
    "id": 5901023966,
    "name": "愛維康生活藥局",
    "phone": "02-27059791",
    "address": "台北市大安區龍雲里16鄰四維路170巷21號",
    "lat": 25.028317,
    "lng": 121.547034,
    "note": ""
  },
  {
    "id": 5901024007,
    "name": "古亭健康人生藥局",
    "phone": "02-23660895",
    "address": "台北市大安區古莊里5鄰羅斯福路二段83號",
    "lat": 25.025723,
    "lng": 121.523691,
    "note": "9:30-21:55"
  },
  {
    "id": 5901024098,
    "name": "杏一瑞安藥局",
    "phone": "02-27096710",
    "address": "台北市大安區龍圖里14鄰瑞安街208巷11弄1號",
    "lat": 25.028661,
    "lng": 121.540647,
    "note": ""
  },
  {
    "id": 5901024114,
    "name": "好安心藥局",
    "phone": "02-23772166",
    "address": "台北市大安區龍淵里5鄰和平東路二段98之2號",
    "lat": 25.024932,
    "lng": 121.541503,
    "note": "週日有時營業，不定期營業"
  },
  {
    "id": 5901024123,
    "name": "中山樂方藥局",
    "phone": "02-27050622",
    "address": "台北市大安區敦安里17鄰仁愛路四段112巷12號",
    "lat": 25.036422,
    "lng": 121.549579,
    "note": ""
  },
  {
    "id": 5901024178,
    "name": "天康忠孝藥局",
    "phone": "02-77137763",
    "address": "台北市大安區昌隆里1鄰忠孝東路三段223之1號",
    "lat": 25.041856,
    "lng": 121.540036,
    "note": "過年期間照常營業"
  },
  {
    "id": 5901024212,
    "name": "中力信義藥局",
    "phone": "02-23250266",
    "address": "台北市大安區仁慈里2鄰信義路四段51號",
    "lat": 25.033544,
    "lng": 121.544997,
    "note": ""
  },
  {
    "id": 5901024221,
    "name": "安居藥局",
    "phone": "02-23773537",
    "address": "台北市大安區黎孝里8鄰安居街19號",
    "lat": 25.020856,
    "lng": 121.554935,
    "note": ""
  },
  {
    "id": 5901024310,
    "name": "躍獅新生藥局",
    "phone": "02-23623367",
    "address": "台北市大安區龍門里7鄰和平東路二段20號",
    "lat": 25.025664,
    "lng": 121.536221,
    "note": ""
  },
  {
    "id": 5901024347,
    "name": "博大藥局",
    "phone": "02-27027858",
    "address": "台北市大安區通安里6鄰安和路二段65號",
    "lat": 25.030627,
    "lng": 121.552568,
    "note": ""
  },
  {
    "id": 5901024427,
    "name": "博昱仁愛藥局",
    "phone": "02-87739258",
    "address": "台北市大安區仁愛里17鄰仁愛路四段65號",
    "lat": 25.038194,
    "lng": 121.546869,
    "note": "8:00-22:00"
  },
  {
    "id": 5901024472,
    "name": "忠孝康承健保藥局",
    "phone": "02-87733378",
    "address": "台北市大安區光武里25鄰復興南路一段107巷4號",
    "lat": 25.043565,
    "lng": 121.544399,
    "note": ""
  },
  {
    "id": 5901024481,
    "name": "微笑藥師藥局",
    "phone": "02-27009655",
    "address": "台北市大安區民炤里10鄰信義路三段31巷4號",
    "lat": 25.034007,
    "lng": 121.534458,
    "note": "執業時間9點到21點"
  },
  {
    "id": 5901024490,
    "name": "明星大藥局",
    "phone": "02-27023747",
    "address": "台北市大安區光信里5鄰光復南路430之1號",
    "lat": 25.036184,
    "lng": 121.557375,
    "note": ""
  },
  {
    "id": 5901024516,
    "name": "博昱師大藥局",
    "phone": "02-23696966",
    "address": "台北市大安區古風里6鄰羅斯福路三段189號",
    "lat": 25.02109,
    "lng": 121.528069,
    "note": "執業時間8點到24點"
  },
  {
    "id": 5901024525,
    "name": "國泰維康藥局",
    "phone": "02-27542185",
    "address": "台北市大安區敦煌里16鄰仁愛路四段266巷15弄20號",
    "lat": 25.03654,
    "lng": 121.5541,
    "note": ""
  },
  {
    "id": 5901024543,
    "name": "奇威藥局",
    "phone": "02-23651110",
    "address": "台北市大安區龍泉里1鄰雲和街93號",
    "lat": 25.023386,
    "lng": 121.531152,
    "note": ""
  },
  {
    "id": 5901024632,
    "name": "艾登安和藥局",
    "phone": "02-27015201",
    "address": "台北市大安區敦煌里14鄰安和路一段123號",
    "lat": 25.034881,
    "lng": 121.552681,
    "note": "禮拜天執業時間11點到19點"
  },
  {
    "id": 5901024669,
    "name": "百岳藥局",
    "phone": "02-27551037",
    "address": "台北市大安區群賢里7鄰和平東路二段311巷11號",
    "lat": 25.025138,
    "lng": 121.545222,
    "note": "執業時間早上時段9點到12點,晚上時段18點到21點"
  },
  {
    "id": 5901024678,
    "name": "大安健康人生藥局",
    "phone": "02-27025553",
    "address": "台北市大安區住安里4鄰信義路四段34號",
    "lat": 25.033159,
    "lng": 121.544742,
    "note": ""
  },
  {
    "id": 5901024687,
    "name": "博昱大藥局",
    "phone": "02-23776199",
    "address": "台北市大安區黎元里8鄰樂業街148號",
    "lat": 25.019978,
    "lng": 121.55295,
    "note": ""
  },
  {
    "id": 5901024696,
    "name": "仁華藥局",
    "phone": "02-27336762",
    "address": "台北市大安區黎元里14鄰臥龍街155號",
    "lat": 25.018343,
    "lng": 121.551094,
    "note": ""
  },
  {
    "id": 5901024703,
    "name": "吾家藥局",
    "phone": "02-27066425",
    "address": "台北市大安區敦煌里8鄰信義路四段265巷6之1號",
    "lat": 25.033723,
    "lng": 121.554205,
    "note": ""
  },
  {
    "id": 5901024712,
    "name": "早安藥局",
    "phone": "02-27002209",
    "address": "台北市大安區新龍里2鄰建國南路二段151巷42號",
    "lat": 25.028648,
    "lng": 121.539578,
    "note": ""
  },
  {
    "id": 5901024721,
    "name": "麗泰藥局",
    "phone": "02-27079595",
    "address": "台北市大安區群賢里4鄰復興南路二段151巷4號",
    "lat": 25.028319,
    "lng": 121.543998,
    "note": ""
  },
  {
    "id": 5901024758,
    "name": "兆安健保藥局",
    "phone": "02-27363069",
    "address": "台北市大安區臨江里7鄰通化街139號",
    "lat": 25.02901,
    "lng": 121.553977,
    "note": ""
  },
  {
    "id": 5901024767,
    "name": "杏一樂業藥局",
    "phone": "02-27383194",
    "address": "台北市大安區黎元里2鄰樂業街162號",
    "lat": 25.019585,
    "lng": 121.553459,
    "note": ""
  },
  {
    "id": 5901103183,
    "name": "OK藥師藥局",
    "phone": "02-25170068",
    "address": "台北市中山區龍洲里11鄰興安街95號",
    "lat": 25.056155,
    "lng": 121.543465,
    "note": ""
  },
  {
    "id": 5901103192,
    "name": "昶青林森藥局",
    "phone": "02-25639939",
    "address": "台北市中山區正義里11鄰林森北路119巷52號",
    "lat": 25.050182,
    "lng": 121.526852,
    "note": ""
  },
  {
    "id": 5901103209,
    "name": "麗恩藥局",
    "phone": "02-25981982",
    "address": "台北市中山區晴光里6鄰林森北路575之5號",
    "lat": 25.065299,
    "lng": 121.525798,
    "note": ""
  },
  {
    "id": 5901103227,
    "name": "建誠中西藥局",
    "phone": "02-25158608",
    "address": "台北市中山區下埤里6鄰龍江路385之1號",
    "lat": 25.065106,
    "lng": 121.541046,
    "note": ""
  },
  {
    "id": 5901103236,
    "name": "誠意中西藥局",
    "phone": "02-25950951",
    "address": "台北市中山區晴光里6鄰林森北路613號",
    "lat": 25.066473,
    "lng": 121.525825,
    "note": ""
  },
  {
    "id": 5901103272,
    "name": "長安藥局",
    "phone": "02-27772740",
    "address": "台北市中山區力行里3鄰長安東路二段171之3號",
    "lat": 25.048401,
    "lng": 121.541786,
    "note": "上午9:30-晚上10:30"
  },
  {
    "id": 5901103325,
    "name": "仁一藥局",
    "phone": "02-25711742",
    "address": "台北市中山區聚葉里12鄰林森北路520號",
    "lat": 25.062326,
    "lng": 121.525506,
    "note": ""
  },
  {
    "id": 5901010290,
    "name": "健全藥局",
    "phone": "02-27128293",
    "address": "台北市松山區民福里5鄰民權東路三段103巷20號",
    "lat": 25.063269,
    "lng": 121.544911,
    "note": ""
  },
  {
    "id": 5901010389,
    "name": "李得安藥局",
    "phone": "02-87871655",
    "address": "台北市松山區介壽里18鄰民生東路五段36巷8弄11號",
    "lat": 25.057333,
    "lng": 121.559856,
    "note": ""
  },
  {
    "id": 5901010496,
    "name": "瑞昌大藥局",
    "phone": "02-27151881",
    "address": "台北市松山區民福里5鄰民權東路三段103巷10號",
    "lat": 25.062984,
    "lng": 121.544918,
    "note": ""
  },
  {
    "id": 5901010576,
    "name": "合生藥局",
    "phone": "02-27602932",
    "address": "台北市松山區東光里16鄰南京東路五段123巷45號",
    "lat": 25.053638,
    "lng": 121.560748,
    "note": "執業時段請電洽藥局"
  },
  {
    "id": 5901011662,
    "name": "上允藥局",
    "phone": "02-27696905",
    "address": "台北市松山區介壽里14鄰民生東路五段78號",
    "lat": 25.058364,
    "lng": 121.559049,
    "note": ""
  },
  {
    "id": 5901011699,
    "name": "建東大藥局",
    "phone": "02-27676237",
    "address": "台北市松山區三民里4鄰三民路97號",
    "lat": 25.057235,
    "lng": 121.563398,
    "note": ""
  },
  {
    "id": 5901011733,
    "name": "和諧藥局",
    "phone": "02-27568580",
    "address": "台北市松山區三民里13鄰民生東路五段148號",
    "lat": 25.058494,
    "lng": 121.562151,
    "note": ""
  },
  {
    "id": 5901011751,
    "name": "德恩藥師藥局",
    "phone": "02-27782829",
    "address": "台北市松山區中崙里7鄰八德路二段378號",
    "lat": 25.047971,
    "lng": 121.546142,
    "note": ""
  },
  {
    "id": 5901011760,
    "name": "延壽藥局",
    "phone": "02-27685159",
    "address": "台北市松山區介壽里5鄰延壽街327號",
    "lat": 25.056786,
    "lng": 121.560363,
    "note": ""
  },
  {
    "id": 5901011975,
    "name": "萬泰藥局",
    "phone": "02-27135891",
    "address": "台北市松山區民有里14鄰敦化北路222巷38號",
    "lat": 25.059943,
    "lng": 121.547103,
    "note": ""
  },
  {
    "id": 5901021382,
    "name": "建如藥局",
    "phone": "02-27331456",
    "address": "台北市大安區黎孝里3鄰和平東路三段228巷11號",
    "lat": 25.021742,
    "lng": 121.554342,
    "note": ""
  },
  {
    "id": 5901021408,
    "name": "生百藥局",
    "phone": "02-27371011",
    "address": "台北市大安區通安里11鄰臨江街124號",
    "lat": 25.030235,
    "lng": 121.553878,
    "note": ""
  },
  {
    "id": 5901022521,
    "name": "台安藥局",
    "phone": "02-27549099",
    "address": "台北市大安區群賢里8鄰和平東路二段353號",
    "lat": 25.024869,
    "lng": 121.546163,
    "note": ""
  },
  {
    "id": 5901022601,
    "name": "生光藥局",
    "phone": "02-27780862",
    "address": "台北市大安區義村里8鄰忠孝東路三段248巷2號",
    "lat": 25.041353,
    "lng": 121.541207,
    "note": ""
  },
  {
    "id": 5901022763,
    "name": "佳美藥局",
    "phone": "02-27054987",
    "address": "台北市大安區仁慈里15鄰復興南路一段261之3號",
    "lat": 25.036222,
    "lng": 121.543877,
    "note": ""
  },
  {
    "id": 5901022898,
    "name": "永康藥局",
    "phone": "02-23279362",
    "address": "台北市大安區永康里6鄰麗水街6之2號",
    "lat": 25.032891,
    "lng": 121.528995,
    "note": ""
  },
  {
    "id": 5901023073,
    "name": "世中欣藥局",
    "phone": "02-23938947",
    "address": "台北市大安區永康里5鄰永康街2巷8號",
    "lat": 25.033154,
    "lng": 121.529407,
    "note": ""
  },
  {
    "id": 5901023091,
    "name": "加豐藥局",
    "phone": "02-27219678",
    "address": "台北市大安區義村里9鄰忠孝東路三段216巷3弄1號",
    "lat": 25.041255,
    "lng": 121.540265,
    "note": ""
  },
  {
    "id": 5901023153,
    "name": "崇光藥局",
    "phone": "02-27217958",
    "address": "台北市大安區誠安里10鄰忠孝東路三段305號",
    "lat": 25.041887,
    "lng": 121.543542,
    "note": ""
  },
  {
    "id": 5901023215,
    "name": "大愛健康藥局",
    "phone": "02-27092156",
    "address": "台北市大安區義安里12鄰敦化南路二段63巷65號",
    "lat": 25.031031,
    "lng": 121.551984,
    "note": ""
  },
  {
    "id": 5901024801,
    "name": "平安藥師藥局",
    "phone": "02-27010057",
    "address": "台北市大安區龍生里15鄰建國南路二段223號",
    "lat": 25.026332,
    "lng": 121.538041,
    "note": ""
  },
  {
    "id": 5901024810,
    "name": "博興藥局",
    "phone": "02-23256668",
    "address": "台北市大安區群英里31鄰四維路198巷28號",
    "lat": 25.026614,
    "lng": 121.545964,
    "note": ""
  },
  {
    "id": 5901024829,
    "name": "威康藥局",
    "phone": "02-27061149",
    "address": "台北市大安區群賢里5鄰和平東路二段255之1號",
    "lat": 25.025002,
    "lng": 121.543754,
    "note": ""
  },
  {
    "id": 5901024838,
    "name": "昶青藥局",
    "phone": "02-27515678",
    "address": "台北市大安區民輝里4鄰濟南路三段22之1號",
    "lat": 25.040086,
    "lng": 121.534581,
    "note": ""
  },
  {
    "id": 5901024856,
    "name": "杏一台北國泰藥局",
    "phone": "02-27011785",
    "address": "台北市大安區敦煌里16鄰仁愛路四段266巷15弄4號",
    "lat": 25.036554,
    "lng": 121.553185,
    "note": ""
  },
  {
    "id": 5901024865,
    "name": "沛林東區生活藥_藥局",
    "phone": "02-27763759",
    "address": "台北市大安區建安里14鄰敦化南路一段187巷17號",
    "lat": 25.042668,
    "lng": 121.550149,
    "note": ""
  },
  {
    "id": 5901024874,
    "name": "奇異果大安藥局",
    "phone": "02-23250891",
    "address": "台北市大安區仁慈里9鄰大安路一段190號",
    "lat": 25.035726,
    "lng": 121.545888,
    "note": ""
  },
  {
    "id": 5901024883,
    "name": "躍獅敦和藥局",
    "phone": "02-23785767",
    "address": "台北市大安區虎嘯里1鄰和平東路三段10號",
    "lat": 25.024527,
    "lng": 121.546993,
    "note": ""
  },
  {
    "id": 5901024892,
    "name": "太醫藥局",
    "phone": "02-23685125",
    "address": "台北市大安區古莊里2鄰師大路12號",
    "lat": 25.025681,
    "lng": 121.52827,
    "note": ""
  },
  {
    "id": 5901024909,
    "name": "康維健保藥局",
    "phone": "02-27000120",
    "address": "台北市大安區敦安里15鄰敦化南路一段329巷15號",
    "lat": 25.034246,
    "lng": 121.550022,
    "note": ""
  },
  {
    "id": 5901102855,
    "name": "錦西春天生活藥局",
    "phone": "02-25312658",
    "address": "台北市中山區集英里7鄰錦西街10號",
    "lat": 25.06024,
    "lng": 121.521574,
    "note": ""
  },
  {
    "id": 5901102873,
    "name": "盛康藥局",
    "phone": "02-25969580",
    "address": "台北市中山區新喜里16鄰吉林路399號",
    "lat": 25.065872,
    "lng": 121.530508,
    "note": ""
  },
  {
    "id": 5901102891,
    "name": "中山藥局",
    "phone": "02-25236979",
    "address": "台北市中山區正得里16鄰林森北路128號",
    "lat": 25.05125,
    "lng": 121.52504,
    "note": ""
  },
  {
    "id": 5901102962,
    "name": "中興藥局",
    "phone": "02-27774628",
    "address": "台北市中山區朱崙里15鄰長安東路二段226號",
    "lat": 25.048181,
    "lng": 121.542709,
    "note": "營業時間如有異動,以藥局公告為準"
  },
  {
    "id": 5901102971,
    "name": "保德明水藥局",
    "phone": "02-85097769",
    "address": "台北市中山區成功里3鄰北安路608巷4弄1號",
    "lat": 25.081912,
    "lng": 121.549291,
    "note": ""
  },
  {
    "id": 5901102999,
    "name": "廣福中西藥局",
    "phone": "02-25189489",
    "address": "台北市中山區江山里21鄰錦州街406號",
    "lat": 25.060114,
    "lng": 121.54166,
    "note": "春節期間2/2,2/4營業,其餘休息."
  },
  {
    "id": 5901103030,
    "name": "錦康活力藥局",
    "phone": "02-25158282",
    "address": "台北市中山區松江里14鄰民生東路二段147巷11弄1號",
    "lat": 25.060024,
    "lng": 121.53504,
    "note": ""
  },
  {
    "id": 5901103110,
    "name": "大直健康藥局",
    "phone": "02-25323310",
    "address": "台北市中山區大直里18鄰北安路591號",
    "lat": 25.081944,
    "lng": 121.548643,
    "note": ""
  },
  {
    "id": 5901103147,
    "name": "娸淇藥局",
    "phone": "02-25082762",
    "address": "台北市中山區中央里9鄰伊通街95號",
    "lat": 25.053055,
    "lng": 121.534894,
    "note": ""
  },
  {
    "id": 5901113545,
    "name": "和康健保藥局",
    "phone": "02-27997202",
    "address": "台北市內湖區瑞陽里18鄰文德路66巷41號",
    "lat": 25.077203,
    "lng": 121.581781,
    "note": "9:00-21點"
  },
  {
    "id": 5901113554,
    "name": "葫光藥局",
    "phone": "02-26336611",
    "address": "台北市內湖區葫洲里12鄰康寧路三段54巷6號",
    "lat": 25.071679,
    "lng": 121.608993,
    "note": "國定假日可執行調劑業務"
  },
  {
    "id": 5901113563,
    "name": "耀元藥局",
    "phone": "02-26337369",
    "address": "台北市內湖區樂康里23鄰康樂街150號",
    "lat": 25.072627,
    "lng": 121.619241,
    "note": ""
  },
  {
    "id": 5901120022,
    "name": "旭村藥局",
    "phone": "02-27820948",
    "address": "台北市南港區東新里1鄰興華路112號",
    "lat": 25.056608,
    "lng": 121.605542,
    "note": ""
  },
  {
    "id": 5901120139,
    "name": "裕成藥局",
    "phone": "02-27851227",
    "address": "台北市南港區萬福里19鄰玉成街166巷13號",
    "lat": 25.044334,
    "lng": 121.583448,
    "note": ""
  },
  {
    "id": 5901120175,
    "name": "新錦安藥局",
    "phone": "02-27825218",
    "address": "台北市南港區西新里9鄰南港路三段34號",
    "lat": 25.054292,
    "lng": 121.592216,
    "note": ""
  },
  {
    "id": 5901120184,
    "name": "仁泰藥局",
    "phone": "02-27855464",
    "address": "台北市南港區萬福里9鄰同德路28號",
    "lat": 25.045108,
    "lng": 121.584086,
    "note": ""
  },
  {
    "id": 5901120308,
    "name": "加欣藥局",
    "phone": "02-27836222",
    "address": "台北市南港區東明里16鄰南港路二段26號",
    "lat": 25.054251,
    "lng": 121.605398,
    "note": ""
  },
  {
    "id": 5901121421,
    "name": "祥安藥局",
    "phone": "02-26547322",
    "address": "台北市南港區鴻福里14鄰中坡南路25號",
    "lat": 25.043288,
    "lng": 121.583168,
    "note": ""
  },
  {
    "id": 5901121449,
    "name": "麗康藥局",
    "phone": "02-26515236",
    "address": "台北市南港區萬福里4鄰同德路51號",
    "lat": 25.045641,
    "lng": 121.584753,
    "note": ""
  },
  {
    "id": 5901010058,
    "name": "安郁藥局",
    "phone": "02-25774551",
    "address": "台北市松山區敦化里22鄰八德路三段12巷51弄16號",
    "lat": 25.046086,
    "lng": 121.551182,
    "note": ""
  },
  {
    "id": 5901010076,
    "name": "榮星藥局",
    "phone": "02-27124696",
    "address": "台北市松山區東勢里1鄰南京東路四段133巷5弄1號",
    "lat": 25.052137,
    "lng": 121.555235,
    "note": ""
  },
  {
    "id": 5901010085,
    "name": "安世藥局",
    "phone": "02-27133405",
    "address": "台北市松山區東勢里1鄰南京東路四段133巷5弄9號",
    "lat": 25.05214,
    "lng": 121.555562,
    "note": ""
  },
  {
    "id": 5901010094,
    "name": "明一藥局",
    "phone": "02-27691654",
    "address": "台北市松山區東光里9鄰南京東路五段59巷28弄25號",
    "lat": 25.052704,
    "lng": 121.558168,
    "note": ""
  },
  {
    "id": 5901010165,
    "name": "傑安藥局",
    "phone": "02-27524155",
    "address": "台北市松山區中正里5鄰八德路二段437巷7弄8號",
    "lat": 25.049139,
    "lng": 121.547337,
    "note": ""
  },
  {
    "id": 5901010174,
    "name": "仁弘藥局",
    "phone": "02-27136764",
    "address": "台北市松山區民有里7鄰民生東路三段113巷25弄6號",
    "lat": 25.059485,
    "lng": 121.546586,
    "note": ""
  },
  {
    "id": 5901010192,
    "name": "益華藥局",
    "phone": "02-27624898",
    "address": "台北市松山區介壽里1鄰民生東路五段138巷6號",
    "lat": 25.058274,
    "lng": 121.561546,
    "note": ""
  },
  {
    "id": 5901010272,
    "name": "德靈藥局",
    "phone": "02-27646998",
    "address": "台北市松山區新益里6鄰富錦街548號",
    "lat": 25.061775,
    "lng": 121.566673,
    "note": "節期間2/4-2/10休息. ."
  },
  {
    "id": 5901024918,
    "name": "康祥藥局",
    "phone": "02-27817891",
    "address": "台北市大安區車層里14鄰忠孝東路四段216巷21號",
    "lat": 25.040254,
    "lng": 121.553063,
    "note": ""
  },
  {
    "id": 5901024927,
    "name": "高特敦南藥局",
    "phone": "092-0318305",
    "address": "台北市大安區德安里2鄰信義路四段115號",
    "lat": 25.033472,
    "lng": 121.548199,
    "note": ""
  },
  {
    "id": 5901090074,
    "name": "慈仁藥局",
    "phone": "02-25572733",
    "address": "台北市大同區大有里13鄰歸綏街261號",
    "lat": 25.058322,
    "lng": 121.51013,
    "note": ""
  },
  {
    "id": 5901090092,
    "name": "三省大藥局",
    "phone": "02-25353536",
    "address": "台北市大同區鄰江里10鄰民族西路303巷19號",
    "lat": 25.069265,
    "lng": 121.510236,
    "note": ""
  },
  {
    "id": 5901090127,
    "name": "三銘大藥局",
    "phone": "02-25583392",
    "address": "台北市大同區永樂里18鄰迪化街一段80號",
    "lat": 25.055808,
    "lng": 121.509909,
    "note": ""
  },
  {
    "id": 5901090154,
    "name": "柯藥局",
    "phone": "02-25948515",
    "address": "台北市大同區保安里7鄰重慶北路三段335巷6號",
    "lat": 25.074519,
    "lng": 121.514367,
    "note": ""
  },
  {
    "id": 5901090181,
    "name": "時春藥局",
    "phone": "02-25597918",
    "address": "台北市大同區光能里16鄰赤峰街4號",
    "lat": 25.053557,
    "lng": 121.519115,
    "note": ""
  },
  {
    "id": 5901090216,
    "name": "裕仁藥局",
    "phone": "02-25910064",
    "address": "台北市大同區鄰江里22鄰迪化街二段270號",
    "lat": 25.070683,
    "lng": 121.511533,
    "note": ""
  },
  {
    "id": 5901090243,
    "name": "建祥藥局",
    "phone": "02-25556476",
    "address": "台北市大同區星明里6鄰寧夏路17號",
    "lat": 25.05485,
    "lng": 121.515044,
    "note": ""
  },
  {
    "id": 5901090270,
    "name": "立生藥局",
    "phone": "02-25925727",
    "address": "台北市大同區隆和里10鄰延平北路三段61之2號",
    "lat": 25.065721,
    "lng": 121.511143,
    "note": ""
  },
  {
    "id": 5901090289,
    "name": "正利民藥局",
    "phone": "02-25924842",
    "address": "台北市大同區國慶里17鄰延平北路三段105號",
    "lat": 25.06806,
    "lng": 121.511035,
    "note": ""
  },
  {
    "id": 5901090323,
    "name": "泰元藥局",
    "phone": "02-25914592",
    "address": "台北市大同區保安里3鄰哈密街91號",
    "lat": 25.07303,
    "lng": 121.514619,
    "note": "以上營業時間僅供參考, 實際營業時間以現場為主"
  },
  {
    "id": 5901090369,
    "name": "保慶藥局",
    "phone": "02-25538988",
    "address": "台北市大同區延平里1鄰保安街21號",
    "lat": 25.059258,
    "lng": 121.512944,
    "note": "上午9時至晚間10時30分"
  },
  {
    "id": 5901091473,
    "name": "快安藥局",
    "phone": "02-25561925",
    "address": "台北市大同區玉泉里11鄰南京西路462號",
    "lat": 25.053588,
    "lng": 121.507656,
    "note": ""
  },
  {
    "id": 5901091544,
    "name": "得意藥師藥局",
    "phone": "02-25534294",
    "address": "台北市大同區延平里5鄰延平北路二段229號",
    "lat": 25.060289,
    "lng": 121.511467,
    "note": ""
  },
  {
    "id": 5901091624,
    "name": "健康美藥局",
    "phone": "02-25976707",
    "address": "台北市大同區至聖里29鄰民族西路165號",
    "lat": 25.068722,
    "lng": 121.515522,
    "note": ""
  },
  {
    "id": 5901091688,
    "name": "宏泰藥師藥局",
    "phone": "02-25957025",
    "address": "台北市大同區保安里1鄰酒泉街131號",
    "lat": 25.072131,
    "lng": 121.514477,
    "note": ""
  },
  {
    "id": 5901091759,
    "name": "儷安藥局",
    "phone": "02-25578033",
    "address": "台北市大同區民權里15鄰錦西街53巷16號",
    "lat": 25.060653,
    "lng": 121.515832,
    "note": ""
  },
  {
    "id": 5901091820,
    "name": "富康藥局",
    "phone": "02-25537782",
    "address": "台北市大同區大有里4鄰延平北路二段126號",
    "lat": 25.057334,
    "lng": 121.511459,
    "note": ""
  },
  {
    "id": 5901091839,
    "name": "春鄰藥局",
    "phone": "02-25492000",
    "address": "台北市大同區建泰里1鄰長安西路35號",
    "lat": 25.05036,
    "lng": 121.519732,
    "note": ""
  },
  {
    "id": 5901091857,
    "name": "佳禾藥局",
    "phone": "02-25953806",
    "address": "台北市大同區至聖里26鄰大龍街262號",
    "lat": 25.070609,
    "lng": 121.515833,
    "note": ""
  },
  {
    "id": 5901091884,
    "name": "躍獅雙蓮藥局",
    "phone": "02-25537551",
    "address": "台北市大同區民權里10鄰涼州街4號",
    "lat": 25.060776,
    "lng": 121.514678,
    "note": ""
  },
  {
    "id": 5901091973,
    "name": "延平新聖安藥局",
    "phone": "02-25923399",
    "address": "台北市大同區隆和里10鄰延平北路三段35號",
    "lat": 25.064747,
    "lng": 121.511201,
    "note": ""
  },
  {
    "id": 5901091991,
    "name": "德芳藥局",
    "phone": "02-25576869",
    "address": "台北市大同區雙連里13鄰民生西路91號",
    "lat": 25.057618,
    "lng": 121.519369,
    "note": ""
  },
  {
    "id": 5901092014,
    "name": "旭豐藥局",
    "phone": "02-25853880",
    "address": "台北市大同區蓬萊里16鄰昌吉街96號",
    "lat": 25.065824,
    "lng": 121.515121,
    "note": ""
  },
  {
    "id": 5901092041,
    "name": "酒泉春天藥局",
    "phone": "02-25977932",
    "address": "台北市大同區至聖里21鄰酒泉街94號",
    "lat": 25.071934,
    "lng": 121.514555,
    "note": ""
  },
  {
    "id": 5901092050,
    "name": "中興聯合藥局",
    "phone": "02-25502952",
    "address": "台北市大同區玉泉里9鄰鄭州路127號",
    "lat": 25.050354,
    "lng": 121.510788,
    "note": ""
  },
  {
    "id": 5901092069,
    "name": "躍獅遠東藥局",
    "phone": "02-25594835",
    "address": "台北市大同區永樂里9鄰南京西路374號",
    "lat": 25.053696,
    "lng": 121.510636,
    "note": ""
  },
  {
    "id": 5901092078,
    "name": "大同民生藥局",
    "phone": "02-25558886",
    "address": "台北市大同區永樂里20鄰民生西路432號",
    "lat": 25.056756,
    "lng": 121.508478,
    "note": ""
  },
  {
    "id": 5901100057,
    "name": "百源堂大藥局",
    "phone": "02-25364362",
    "address": "台北市中山區興亞里13鄰長安東路二段47之5號",
    "lat": 25.048572,
    "lng": 121.532247,
    "note": "實際時間依個人情況而訂需以電話查詢"
  },
  {
    "id": 5901100066,
    "name": "名祥藥局",
    "phone": "02-25036265",
    "address": "台北市中山區朱馥里21鄰龍江路166號",
    "lat": 25.055049,
    "lng": 121.540284,
    "note": ""
  },
  {
    "id": 5901100155,
    "name": "大信藥局",
    "phone": "02-25719080",
    "address": "台北市中山區正義里15鄰林森北路159巷6號",
    "lat": 25.051699,
    "lng": 121.525542,
    "note": ""
  },
  {
    "id": 5901100244,
    "name": "定好大藥局",
    "phone": "02-25946788",
    "address": "台北市中山區新庄里8鄰農安街125巷34號",
    "lat": 25.065972,
    "lng": 121.529758,
    "note": ""
  },
  {
    "id": 5901100333,
    "name": "明美藥局",
    "phone": "02-25365419",
    "address": "台北市中山區中山里26鄰長春路69號",
    "lat": 25.055022,
    "lng": 121.526587,
    "note": ""
  },
  {
    "id": 5901100342,
    "name": "順泰藥局",
    "phone": "02-25038916",
    "address": "台北市中山區松江里5鄰錦州街266號",
    "lat": 25.060253,
    "lng": 121.53475,
    "note": ""
  },
  {
    "id": 5901100422,
    "name": "滿順藥局",
    "phone": "02-25075283",
    "address": "台北市中山區朱園里8鄰伊通街54號",
    "lat": 25.051448,
    "lng": 121.534655,
    "note": "春節期間看診時段請電洽"
  },
  {
    "id": 5901100431,
    "name": "長生藥局",
    "phone": "02-25816210",
    "address": "台北市中山區新生里2鄰松江路362巷55號",
    "lat": 25.062067,
    "lng": 121.531314,
    "note": ""
  },
  {
    "id": 5901100440,
    "name": "優豐藥局",
    "phone": "02-25602565",
    "address": "台北市中山區中山里11鄰民生東路一段32號",
    "lat": 25.057935,
    "lng": 121.524223,
    "note": ""
  },
  {
    "id": 5901100495,
    "name": "能康藥局",
    "phone": "02-25429426",
    "address": "台北市中山區康樂里7鄰長春路46號",
    "lat": 25.054818,
    "lng": 121.525629,
    "note": ""
  },
  {
    "id": 5901100628,
    "name": "貢玄藥局",
    "phone": "02-25637847",
    "address": "台北市中山區新生里11鄰錦州街207號",
    "lat": 25.060394,
    "lng": 121.531963,
    "note": ""
  },
  {
    "id": 5901100664,
    "name": "阿里藥局",
    "phone": "02-25020638",
    "address": "台北市中山區松江里5鄰錦州街251號",
    "lat": 25.060393,
    "lng": 121.534194,
    "note": ""
  },
  {
    "id": 5901100717,
    "name": "榮昌藥局",
    "phone": "02-25964593",
    "address": "台北市中山區恆安里11鄰雙城街17之3號",
    "lat": 25.064631,
    "lng": 121.524415,
    "note": ""
  },
  {
    "id": 5901100735,
    "name": "華友藥局",
    "phone": "02-25007159",
    "address": "台北市中山區行仁里15鄰龍江路356巷27號",
    "lat": 25.066076,
    "lng": 121.539862,
    "note": ""
  },
  {
    "id": 5901100771,
    "name": "良佑藥局",
    "phone": "02-25916402",
    "address": "台北市中山區集英里20鄰撫順街6之2號",
    "lat": 25.063669,
    "lng": 121.521567,
    "note": ""
  },
  {
    "id": 5901100799,
    "name": "立大藥局",
    "phone": "02-25313844",
    "address": "台北市中山區中原里10鄰吉林路144巷14號",
    "lat": 25.055984,
    "lng": 121.529578,
    "note": ""
  },
  {
    "id": 5901100959,
    "name": "武璋大藥局",
    "phone": "02-25072026",
    "address": "台北市中山區中央里9鄰伊通街97之2號",
    "lat": 25.053175,
    "lng": 121.534894,
    "note": ""
  },
  {
    "id": 5901101072,
    "name": "長青藥局",
    "phone": "02-25053160",
    "address": "台北市中山區朱馥里27鄰興安街55號",
    "lat": 25.056207,
    "lng": 121.541887,
    "note": ""
  },
  {
    "id": 5901101161,
    "name": "晏晟藥局",
    "phone": "02-25851445",
    "address": "台北市中山區圓山里2鄰林森北路625號",
    "lat": 25.067034,
    "lng": 121.525859,
    "note": ""
  },
  {
    "id": 5901101205,
    "name": "大直藥局",
    "phone": "02-25320522",
    "address": "台北市中山區大直里18鄰北安路617號",
    "lat": 25.082728,
    "lng": 121.548838,
    "note": "早上9點至晚上11點，農曆年節白天照常執業"
  },
  {
    "id": 5901101250,
    "name": "美日藥局",
    "phone": "02-25631662",
    "address": "台北市中山區正得里9鄰天津街66號",
    "lat": 25.051364,
    "lng": 121.523274,
    "note": "春節停止服務{1/24至1/29}止共6天"
  },
  {
    "id": 5901101278,
    "name": "人人藥局",
    "phone": "02-25630789",
    "address": "台北市中山區新生里2鄰吉林路267號",
    "lat": 25.06209,
    "lng": 121.530398,
    "note": ""
  },
  {
    "id": 5901101321,
    "name": "文德藥局",
    "phone": "02-25181178",
    "address": "台北市中山區行仁里15鄰龍江路356巷19號",
    "lat": 25.066075,
    "lng": 121.540088,
    "note": ""
  },
  {
    "id": 5901101509,
    "name": "永直藥局",
    "phone": "02-85098059",
    "address": "台北市中山區大直里25鄰北安路595巷2弄6號",
    "lat": 25.081926,
    "lng": 121.548295,
    "note": ""
  },
  {
    "id": 5901101536,
    "name": "展佑藥局",
    "phone": "02-25232803",
    "address": "台北市中山區中吉里8鄰長春路146之1號",
    "lat": 25.054728,
    "lng": 121.531711,
    "note": ""
  },
  {
    "id": 5901101607,
    "name": "蓁榛健康生活藥局",
    "phone": "02-25099333",
    "address": "台北市中山區江山里2鄰合江街100之2號",
    "lat": 25.058454,
    "lng": 121.53911,
    "note": ""
  },
  {
    "id": 5901101625,
    "name": "中崙藥局",
    "phone": "02-27114971",
    "address": "台北市中山區朱崙里16鄰八德路二段307號",
    "lat": 25.047362,
    "lng": 121.542608,
    "note": ""
  },
  {
    "id": 5901101652,
    "name": "祥泰藥局",
    "phone": "02-25313097",
    "address": "台北市中山區正得里16鄰林森北路136號",
    "lat": 25.051419,
    "lng": 121.525087,
    "note": ""
  },
  {
    "id": 5901101796,
    "name": "得康藥局",
    "phone": "02-25814889",
    "address": "台北市中山區聚盛里17鄰林森北路405號",
    "lat": 25.059432,
    "lng": 121.525682,
    "note": ""
  },
  {
    "id": 5901101910,
    "name": "嘉恩藥局",
    "phone": "02-25181418",
    "address": "台北市中山區江寧里2鄰錦州街321號",
    "lat": 25.060326,
    "lng": 121.538508,
    "note": ""
  },
  {
    "id": 5901101929,
    "name": "樂活苑藥局",
    "phone": "02-25323296",
    "address": "台北市中山區永安里9鄰北安路546號",
    "lat": 25.08014,
    "lng": 121.547952,
    "note": ""
  },
  {
    "id": 5901101992,
    "name": "大愛藥師藥局",
    "phone": "02-25424723",
    "address": "台北市中山區新生里12鄰吉林路255號",
    "lat": 25.061647,
    "lng": 121.530392,
    "note": "上午11時30分到晚上9點"
  },
  {
    "id": 5901102015,
    "name": "久大藥局",
    "phone": "02-25111594",
    "address": "台北市中山區聚葉里14鄰林森北路480號",
    "lat": 25.061269,
    "lng": 121.525478,
    "note": ""
  },
  {
    "id": 5901102060,
    "name": "專心藥局",
    "phone": "02-25155847",
    "address": "台北市中山區中央里4鄰伊通街112之2號",
    "lat": 25.054258,
    "lng": 121.534725,
    "note": "早上11點半營業*(星期1-5)"
  },
  {
    "id": 5901102408,
    "name": "康林藥局",
    "phone": "02-25171867",
    "address": "台北市中山區龍洲里11鄰興安街105號",
    "lat": 25.056166,
    "lng": 121.54377,
    "note": ""
  },
  {
    "id": 5901102417,
    "name": "民生興安藥局",
    "phone": "02-25018310",
    "address": "台北市中山區龍洲里18鄰民生東路三段90之1號",
    "lat": 25.057459,
    "lng": 121.543538,
    "note": ""
  },
  {
    "id": 5901102444,
    "name": "啟美藥師藥局",
    "phone": "02-25178032",
    "address": "台北市中山區松江里15鄰錦州街282號",
    "lat": 25.060239,
    "lng": 121.535237,
    "note": ""
  },
  {
    "id": 5901102515,
    "name": "華康藥局",
    "phone": "02-25211772",
    "address": "台北市中山區集英里1鄰民生西路3巷2之1號",
    "lat": 25.058248,
    "lng": 121.521673,
    "note": ""
  },
  {
    "id": 5901102560,
    "name": "龍江藥局",
    "phone": "02-25023724",
    "address": "台北市中山區行仁里13鄰龍江路356巷14號",
    "lat": 25.065913,
    "lng": 121.540294,
    "note": ""
  },
  {
    "id": 5901102579,
    "name": "晴光藥局",
    "phone": "02-25951393",
    "address": "台北市中山區晴光里8鄰農安街23之2號",
    "lat": 25.065007,
    "lng": 121.52454,
    "note": ""
  },
  {
    "id": 5901102597,
    "name": "德惠藥局",
    "phone": "02-25971131",
    "address": "台北市中山區新庄里10鄰德惠街122號",
    "lat": 25.066522,
    "lng": 121.530042,
    "note": ""
  },
  {
    "id": 5901102631,
    "name": "金生藥局",
    "phone": "02-87729808",
    "address": "台北市中山區力行里4鄰長安東路二段167之1號",
    "lat": 25.048426,
    "lng": 121.54068,
    "note": "國定假日(星期六)營業到PM6點"
  },
  {
    "id": 5901102677,
    "name": "興康源藥局",
    "phone": "02-25311248",
    "address": "台北市中山區民安里9鄰中山北路一段140巷8號",
    "lat": 25.051434,
    "lng": 121.521402,
    "note": ""
  },
  {
    "id": 5901102686,
    "name": "富宥康藥局",
    "phone": "02-25325277",
    "address": "台北市中山區成功里7鄰北安路608巷5弄22號",
    "lat": 25.082629,
    "lng": 121.549627,
    "note": ""
  },
  {
    "id": 5901102748,
    "name": "淮濟藥師藥局",
    "phone": "02-85098636",
    "address": "台北市中山區永安里10鄰北安路570號",
    "lat": 25.080822,
    "lng": 121.548558,
    "note": ""
  },
  {
    "id": 5901102828,
    "name": "逸帆藥局",
    "phone": "02-25222323",
    "address": "台北市中山區新生里11鄰錦州街189號",
    "lat": 25.060417,
    "lng": 121.531244,
    "note": ""
  },
  {
    "id": 5901102837,
    "name": "正傑健保藥局",
    "phone": "02-27310181",
    "address": "台北市中山區力行里1鄰長安東路二段181號",
    "lat": 25.048385,
    "lng": 121.542569,
    "note": ""
  },
  {
    "id": 5901103334,
    "name": "大直小太陽藥局",
    "phone": "02-85093208",
    "address": "台北市中山區大直里18鄰北安路607之1號",
    "lat": 25.08241,
    "lng": 121.548762,
    "note": ""
  },
  {
    "id": 5901103343,
    "name": "王中興藥局",
    "phone": "02-25034281",
    "address": "台北市中山區江山里20鄰龍江路273號",
    "lat": 25.059556,
    "lng": 121.540826,
    "note": ""
  },
  {
    "id": 5901103352,
    "name": "美康正康藥局",
    "phone": "02-25323077",
    "address": "台北市中山區成功里2鄰北安路616之1號",
    "lat": 25.082426,
    "lng": 121.549052,
    "note": ""
  },
  {
    "id": 5901103405,
    "name": "大直永安藥局",
    "phone": "02-25332125",
    "address": "台北市中山區大直里27鄰北安路567之2號",
    "lat": 25.080728,
    "lng": 121.548172,
    "note": ""
  },
  {
    "id": 5901103414,
    "name": "元宏藥局",
    "phone": "02-25339728",
    "address": "台北市中山區永安里7鄰北安路458巷41弄49號",
    "lat": 25.079401,
    "lng": 121.546458,
    "note": "晚間由16:30營業至21:30"
  },
  {
    "id": 5901103423,
    "name": "農安藥局",
    "phone": "02-25959293",
    "address": "台北市中山區恆安里11鄰農安街18之1號",
    "lat": 25.064832,
    "lng": 121.524773,
    "note": "國定假日執行調劑業務"
  },
  {
    "id": 5901103450,
    "name": "東東藥局",
    "phone": "02-25031730",
    "address": "台北市中山區朱馥里22鄰長春路257之2號",
    "lat": 25.054769,
    "lng": 121.540788,
    "note": "國定假日仍執行調劑業務"
  },
  {
    "id": 5901103469,
    "name": "聖晨藥局",
    "phone": "02-25960359",
    "address": "台北市中山區新福里1鄰農安街140號",
    "lat": 25.064712,
    "lng": 121.532165,
    "note": "國定假日不執行調劑業務"
  },
  {
    "id": 5901103487,
    "name": "錦州春天生活藥局",
    "phone": "02-25213586",
    "address": "台北市中山區新生里11鄰錦州街213號",
    "lat": 25.060392,
    "lng": 121.532103,
    "note": "國定假日仍執行調劑業務"
  },
  {
    "id": 5901103496,
    "name": "杏一龍錦藥局",
    "phone": "02-25174618",
    "address": "台北市中山區江山里16鄰龍江路264號",
    "lat": 25.060105,
    "lng": 121.54064,
    "note": "國定假日亦值行調劑業務"
  },
  {
    "id": 5901103512,
    "name": "大樹龍江藥局",
    "phone": "02-25035666",
    "address": "台北市中山區江山里11鄰龍江路242號",
    "lat": 25.058885,
    "lng": 121.540612,
    "note": "國定假日仍執行調劑業務"
  },
  {
    "id": 5901103521,
    "name": "中華藥局",
    "phone": "02-25997888",
    "address": "台北市中山區晴光里7鄰農安街45之1號",
    "lat": 25.064982,
    "lng": 121.526678,
    "note": ""
  },
  {
    "id": 5901103530,
    "name": "農安盛康藥局",
    "phone": "02-25038205",
    "address": "台北市中山區行政里6鄰農安街267號",
    "lat": 25.064765,
    "lng": 121.535809,
    "note": "國定假日仍執行調劑業務"
  },
  {
    "id": 5901103549,
    "name": "康廷藥局",
    "phone": "02-25335890",
    "address": "台北市中山區大直里18鄰北安路611號",
    "lat": 25.082531,
    "lng": 121.54879,
    "note": "國定假日仍執行調劑業務"
  },
  {
    "id": 5901103558,
    "name": "佳頤中西藥局",
    "phone": "02-25641479",
    "address": "台北市中山區中吉里10鄰長春路147之1號",
    "lat": 25.054952,
    "lng": 121.532346,
    "note": "國定假日仍執行調劑業務"
  },
  {
    "id": 5901103576,
    "name": "康銓藥局",
    "phone": "02-25039393",
    "address": "台北市中山區行政里7鄰農安街174號",
    "lat": 25.064568,
    "lng": 121.534641,
    "note": "國定假日仍執行調劑業務"
  },
  {
    "id": 5901103585,
    "name": "禾全藥局",
    "phone": "02-25165721",
    "address": "台北市中山區行仁里7鄰龍江路332號",
    "lat": 25.065323,
    "lng": 121.540871,
    "note": "國定假日仍執行調劑業務"
  },
  {
    "id": 5901110080,
    "name": "葛蘭素藥局",
    "phone": "02-27997824",
    "address": "台北市內湖區湖濱里4鄰內湖路二段103巷128號",
    "lat": 25.084524,
    "lng": 121.580821,
    "note": ""
  },
  {
    "id": 5901110133,
    "name": "泰成藥局",
    "phone": "02-27921231",
    "address": "台北市內湖區金龍里19鄰內湖路三段135號",
    "lat": 25.086853,
    "lng": 121.589851,
    "note": ""
  },
  {
    "id": 5901110268,
    "name": "赫得藥局",
    "phone": "02-26328642",
    "address": "台北市內湖區東湖里11鄰康樂街72巷17弄4號",
    "lat": 25.069756,
    "lng": 121.617838,
    "note": ""
  },
  {
    "id": 5901110302,
    "name": "富盛藥局",
    "phone": "02-27908667",
    "address": "台北市內湖區紫星里14鄰成功路四段61巷25弄12號",
    "lat": 25.080375,
    "lng": 121.592635,
    "note": ""
  },
  {
    "id": 5901110311,
    "name": "永安藥局",
    "phone": "02-26586658",
    "address": "台北市內湖區紫陽里21鄰文德路210巷30弄48號",
    "lat": 25.077228,
    "lng": 121.585191,
    "note": ""
  },
  {
    "id": 5901110339,
    "name": "富山藥局",
    "phone": "02-27996446",
    "address": "台北市內湖區麗山里6鄰麗山街364巷2號",
    "lat": 25.08168,
    "lng": 121.572833,
    "note": ""
  },
  {
    "id": 5901110393,
    "name": "明湖藥局",
    "phone": "02-26313515",
    "address": "台北市內湖區安湖里2鄰東湖路7巷27號",
    "lat": 25.069705,
    "lng": 121.612468,
    "note": ""
  },
  {
    "id": 5901110446,
    "name": "清白藥局",
    "phone": "02-26305743",
    "address": "台北市內湖區五分里8鄰東湖路108號",
    "lat": 25.068277,
    "lng": 121.615674,
    "note": ""
  },
  {
    "id": 5901110624,
    "name": "宏光藥局",
    "phone": "02-27919068",
    "address": "台北市內湖區寶湖里12鄰成功路二段221號",
    "lat": 25.067378,
    "lng": 121.590855,
    "note": ""
  },
  {
    "id": 5901111863,
    "name": "杏佳藥局",
    "phone": "02-27915726",
    "address": "台北市內湖區紫星里5鄰康寧路一段51號",
    "lat": 25.08033,
    "lng": 121.591996,
    "note": ""
  },
  {
    "id": 5901111890,
    "name": "安康藥局",
    "phone": "02-26327675",
    "address": "台北市內湖區五分里3鄰安康路482號",
    "lat": 25.06785,
    "lng": 121.615788,
    "note": ""
  },
  {
    "id": 5901111934,
    "name": "至康藥局",
    "phone": "02-26580022",
    "address": "台北市內湖區港富里26鄰內湖路一段737巷19弄1號",
    "lat": 25.079246,
    "lng": 121.578502,
    "note": ""
  },
  {
    "id": 5901112011,
    "name": "文新藥局",
    "phone": "02-87978865",
    "address": "台北市內湖區西康里4鄰文湖街7之5號",
    "lat": 25.085443,
    "lng": 121.559897,
    "note": ""
  },
  {
    "id": 5901112100,
    "name": "盧狄聯合藥局",
    "phone": "02-26308897",
    "address": "台北市內湖區明湖里15鄰康寧路三段189巷57號",
    "lat": 25.071331,
    "lng": 121.612874,
    "note": ""
  },
  {
    "id": 5901112351,
    "name": "康信藥局",
    "phone": "02-26342088",
    "address": "台北市內湖區葫洲里9鄰民權東路六段296巷29號",
    "lat": 25.072031,
    "lng": 121.606229,
    "note": ""
  },
  {
    "id": 5901112413,
    "name": "維安藥局",
    "phone": "02-27944520",
    "address": "台北市內湖區內湖里12鄰成功路三段174巷23號",
    "lat": 25.081434,
    "lng": 121.590636,
    "note": "看診時間:早上8:30-晚上10:30"
  },
  {
    "id": 5901112593,
    "name": "康健藥局",
    "phone": "02-26305825",
    "address": "台北市內湖區東湖里9鄰康樂街80號",
    "lat": 25.070147,
    "lng": 121.618859,
    "note": ""
  },
  {
    "id": 5901112600,
    "name": "匯安藥局",
    "phone": "02-26579255",
    "address": "台北市內湖區港富里1鄰內湖路一段703之1號",
    "lat": 25.079637,
    "lng": 121.57742,
    "note": ""
  },
  {
    "id": 5901112682,
    "name": "富康東湖藥局",
    "phone": "02-26323222",
    "address": "台北市內湖區東湖里8鄰東湖路119巷49弄16號",
    "lat": 25.069879,
    "lng": 121.617002,
    "note": ""
  },
  {
    "id": 5901112726,
    "name": "高昱藥局",
    "phone": "02-87519962",
    "address": "台北市內湖區湖元里18鄰陽光街321巷26號",
    "lat": 25.072363,
    "lng": 121.578613,
    "note": ""
  },
  {
    "id": 5901112762,
    "name": "樂活藥師藥局",
    "phone": "02-27968052",
    "address": "台北市內湖區內湖里11鄰內湖路二段368號",
    "lat": 25.082302,
    "lng": 121.590978,
    "note": ""
  },
  {
    "id": 5901112780,
    "name": "樂康藥妝藥局",
    "phone": "02-26562110",
    "address": "台北市內湖區紫陽里8鄰文德路117號",
    "lat": 25.078704,
    "lng": 121.584052,
    "note": ""
  },
  {
    "id": 5901112824,
    "name": "思恩藥局",
    "phone": "02-27965808",
    "address": "台北市內湖區清白里30鄰成功路四段61巷26號",
    "lat": 25.081206,
    "lng": 121.593226,
    "note": ""
  },
  {
    "id": 5901112842,
    "name": "早安元氣藥局",
    "phone": "02-27925994",
    "address": "台北市內湖區紫星里38鄰成功路四段53號",
    "lat": 25.081666,
    "lng": 121.592084,
    "note": "6/7 營業時間0830-1200"
  },
  {
    "id": 5901112860,
    "name": "展恩藥局",
    "phone": "02-27953041",
    "address": "台北市內湖區湖元里1鄰民權東路六段136巷4號",
    "lat": 25.068664,
    "lng": 121.587698,
    "note": ""
  },
  {
    "id": 5901112879,
    "name": "壹零捌藥局",
    "phone": "02-27910061",
    "address": "台北市內湖區秀湖里12鄰成功路四段344號",
    "lat": 25.084879,
    "lng": 121.599638,
    "note": ""
  },
  {
    "id": 5901112977,
    "name": "瑞光藥局",
    "phone": "02-87513365",
    "address": "台北市內湖區港墘里20鄰瑞光路212號",
    "lat": 25.075249,
    "lng": 121.57627,
    "note": "AM08:00-PM22:00"
  },
  {
    "id": 5901112995,
    "name": "昇龍藥局",
    "phone": "02-26316783",
    "address": "台北市內湖區東湖里1鄰東湖路151號",
    "lat": 25.0681,
    "lng": 121.617366,
    "note": "早0800-1200,午1200-1700,晚1800-2200"
  },
  {
    "id": 5901113018,
    "name": "桔子藥局",
    "phone": "02-27930052",
    "address": "台北市內湖區內湖里3鄰內湖路二段333號",
    "lat": 25.083185,
    "lng": 121.591667,
    "note": "早0900-1200,午1400-1700,晚1900-2100"
  },
  {
    "id": 5901113027,
    "name": "晟安藥局",
    "phone": "02-87919320",
    "address": "台北市內湖區金龍里21鄰金龍路135號",
    "lat": 25.085935,
    "lng": 121.590203,
    "note": "早0900-1200,午1200-1800,晚1800-2230"
  },
  {
    "id": 5901113045,
    "name": "西湖藥局",
    "phone": "02-26279291",
    "address": "台北市內湖區麗山里16鄰內湖路一段355號",
    "lat": 25.0822,
    "lng": 121.569262,
    "note": "早0900-1200,午1200-1700,晚1700-2230"
  },
  {
    "id": 5901113081,
    "name": "宜昇優良藥局",
    "phone": "02-26327817",
    "address": "台北市內湖區明湖里4鄰康寧路三段165巷23弄5號",
    "lat": 25.071555,
    "lng": 121.612039,
    "note": ""
  },
  {
    "id": 5901113143,
    "name": "躍獅寶湖藥局",
    "phone": "02-87928335",
    "address": "台北市內湖區寶湖里3鄰民權東路六段123巷28號",
    "lat": 25.070098,
    "lng": 121.592816,
    "note": "2/15~2/18營業至18:00"
  },
  {
    "id": 5901113198,
    "name": "傑昇藥局",
    "phone": "02-27925957",
    "address": "台北市內湖區湖濱里23鄰內湖路二段227號",
    "lat": 25.081803,
    "lng": 121.589045,
    "note": ""
  },
  {
    "id": 5901113205,
    "name": "新安健保藥局",
    "phone": "02-27932289",
    "address": "台北市內湖區週美里14鄰新明路402號",
    "lat": 25.054657,
    "lng": 121.579693,
    "note": ""
  },
  {
    "id": 5901113223,
    "name": "仕德安藥局",
    "phone": "02-27961683",
    "address": "台北市內湖區週美里2鄰新明路210號",
    "lat": 25.057114,
    "lng": 121.584647,
    "note": ""
  },
  {
    "id": 5901113232,
    "name": "躍獅東湖藥局",
    "phone": "02-26347983",
    "address": "台北市內湖區金湖里6鄰金湖路378號",
    "lat": 25.073617,
    "lng": 121.604673,
    "note": ""
  },
  {
    "id": 5901113250,
    "name": "大內湖藥局",
    "phone": "02-27956286",
    "address": "台北市內湖區內湖里13鄰成功路四段12號",
    "lat": 25.081072,
    "lng": 121.590993,
    "note": ""
  },
  {
    "id": 5901113269,
    "name": "樂齡藥師藥局",
    "phone": "02-27919707",
    "address": "台北市內湖區金龍里17鄰內湖路三段103號",
    "lat": 25.086408,
    "lng": 121.5909,
    "note": "如有出訪,會暫時外出"
  },
  {
    "id": 5901113296,
    "name": "喜越藥局",
    "phone": "02-26271955",
    "address": "台北市內湖區西湖里21鄰內湖路一段285巷59弄7號",
    "lat": 25.083767,
    "lng": 121.56733,
    "note": ""
  },
  {
    "id": 5901113303,
    "name": "禾康藥局",
    "phone": "02-26562669",
    "address": "台北市內湖區西湖里13鄰內湖路一段296號",
    "lat": 25.081775,
    "lng": 121.568582,
    "note": ""
  },
  {
    "id": 5901113312,
    "name": "江南大藥局",
    "phone": "02-26595430",
    "address": "台北市內湖區瑞陽里17鄰文德路22巷9弄56號",
    "lat": 25.07656,
    "lng": 121.579148,
    "note": ""
  },
  {
    "id": 5901113330,
    "name": "躍獅大湖藥局",
    "phone": "02-27945376",
    "address": "台北市內湖區秀湖里11鄰成功路四段329號",
    "lat": 25.084537,
    "lng": 121.598976,
    "note": ""
  },
  {
    "id": 5901113349,
    "name": "澴山藥局",
    "phone": "02-87978793",
    "address": "台北市內湖區西康里26鄰環山路一段4號",
    "lat": 25.082882,
    "lng": 121.565391,
    "note": "1/1晚上休息"
  },
  {
    "id": 5901113367,
    "name": "瑞暉藥局",
    "phone": "02-26276828",
    "address": "台北市內湖區紫陽里8鄰文德路105號",
    "lat": 25.078702,
    "lng": 121.583689,
    "note": ""
  },
  {
    "id": 5901113376,
    "name": "內湖藥局",
    "phone": "02-27940545",
    "address": "台北市內湖區紫星里2鄰康寧路一段116號",
    "lat": 25.079484,
    "lng": 121.593402,
    "note": ""
  },
  {
    "id": 5901113385,
    "name": "躍獅康成藥局",
    "phone": "02-87922031",
    "address": "台北市內湖區紫星里16鄰成功路四段61巷11號",
    "lat": 25.081398,
    "lng": 121.592778,
    "note": ""
  },
  {
    "id": 5901113394,
    "name": "富康文德藥局",
    "phone": "02-26272000",
    "address": "台北市內湖區瑞陽里22鄰文德路22巷27弄4號",
    "lat": 25.076595,
    "lng": 121.58,
    "note": ""
  },
  {
    "id": 5901113401,
    "name": "躍獅麗湖藥局",
    "phone": "02-26276160",
    "address": "台北市內湖區麗山里15鄰內湖路一段401之1號",
    "lat": 25.081885,
    "lng": 121.570567,
    "note": ""
  },
  {
    "id": 5901113438,
    "name": "晶龍藥局",
    "phone": "02-27956255",
    "address": "台北市內湖區金龍里1鄰成功路四段218號",
    "lat": 25.084566,
    "lng": 121.596105,
    "note": "國定假日仍執行調劑業務"
  },
  {
    "id": 5901113456,
    "name": "佑全內湖康寧藥局",
    "phone": "02-26346578",
    "address": "台北市內湖區金湖里17鄰康寧路三段39號",
    "lat": 25.072642,
    "lng": 121.607764,
    "note": "國定假日執行調劑業務"
  },
  {
    "id": 5901113474,
    "name": "松達藥師藥局",
    "phone": "02-26272167",
    "address": "台北市內湖區西湖里23鄰內湖路一段285巷65弄9號",
    "lat": 25.084442,
    "lng": 121.567431,
    "note": "國定假日不執行調劑業務"
  },
  {
    "id": 5901113509,
    "name": "安安藥局",
    "phone": "02-87912187",
    "address": "台北市內湖區紫星里10鄰康寧路一段42號",
    "lat": 25.080289,
    "lng": 121.591774,
    "note": "國定假日仍執行調劑業務"
  },
  {
    "id": 5901113527,
    "name": "杏一港墘藥局",
    "phone": "02-87978746",
    "address": "台北市內湖區港富里8鄰港墘路83號",
    "lat": 25.080777,
    "lng": 121.578084,
    "note": "國定假日仍執行調劑業務"
  },
  {
    "id": 5901113536,
    "name": "原大藥局",
    "phone": "02-26596358",
    "address": "台北市內湖區港富里6鄰內湖路一段737巷50弄5號",
    "lat": 25.080578,
    "lng": 121.578812,
    "note": "調劑時間:上午8:00-晚上11點.國定假日仍執行調劑業務"
  },
  {
    "id": 5901121501,
    "name": "親親藥局",
    "phone": "02-26537635",
    "address": "台北市南港區萬福里19鄰玉成街140巷7號",
    "lat": 25.044788,
    "lng": 121.583236,
    "note": ""
  },
  {
    "id": 5901121574,
    "name": "上丞藥師藥局",
    "phone": "02-26535589",
    "address": "台北市南港區萬福里11鄰成福路10號",
    "lat": 25.04574,
    "lng": 121.585894,
    "note": "春節期間2/5-2/7休息"
  },
  {
    "id": 5901121583,
    "name": "健園藥局",
    "phone": "02-27851567",
    "address": "台北市南港區新富里7鄰研究院路一段19號",
    "lat": 25.054014,
    "lng": 121.61657,
    "note": ""
  },
  {
    "id": 5901121592,
    "name": "忠孝藥局",
    "phone": "02-27862829",
    "address": "台北市南港區萬福里11鄰成福路16號",
    "lat": 25.045612,
    "lng": 121.585978,
    "note": ""
  },
  {
    "id": 5901121618,
    "name": "新東發藥局",
    "phone": "02-27855190",
    "address": "台北市南港區百福里4鄰成福路198號",
    "lat": 25.040919,
    "lng": 121.588267,
    "note": "春節期間看診時段請電洽"
  },
  {
    "id": 5901121627,
    "name": "富康活力藥局",
    "phone": "02-27828810",
    "address": "台北市南港區新富里10鄰研究院路一段101巷8號",
    "lat": 25.051809,
    "lng": 121.616512,
    "note": ""
  },
  {
    "id": 5901121672,
    "name": "亞博藥師藥局",
    "phone": "02-27838090",
    "address": "台北市南港區南港里15鄰興華路81號",
    "lat": 25.055447,
    "lng": 121.606059,
    "note": ""
  },
  {
    "id": 5901121725,
    "name": "佳龍藥局",
    "phone": "02-27885951",
    "address": "台北市南港區中研里32鄰研究院路二段80號",
    "lat": 25.045397,
    "lng": 121.6152,
    "note": ""
  },
  {
    "id": 5901121734,
    "name": "湳港藥局",
    "phone": "02-27892200",
    "address": "台北市南港區新富里10鄰研究院路一段101巷12號",
    "lat": 25.051754,
    "lng": 121.616697,
    "note": ""
  },
  {
    "id": 5901121798,
    "name": "進慧藥局",
    "phone": "02-27887049",
    "address": "台北市南港區新富里14鄰研究院路一段163號",
    "lat": 25.050309,
    "lng": 121.6157,
    "note": ""
  },
  {
    "id": 5901121823,
    "name": "儀安健保藥局",
    "phone": "02-27859893",
    "address": "台北市南港區萬福里11鄰同德路74號",
    "lat": 25.045698,
    "lng": 121.58529,
    "note": ""
  },
  {
    "id": 5901121841,
    "name": "泓安藥局",
    "phone": "02-27861083",
    "address": "台北市南港區南港里23鄰興華路75號",
    "lat": 25.055167,
    "lng": 121.606128,
    "note": ""
  },
  {
    "id": 5901121850,
    "name": "健涵藥局",
    "phone": "02-27837285",
    "address": "台北市南港區舊莊里4鄰舊莊街一段147號",
    "lat": 25.039854,
    "lng": 121.620503,
    "note": ""
  },
  {
    "id": 5901121869,
    "name": "南港藥局",
    "phone": "02-27829137",
    "address": "台北市南港區南港里10鄰南港路一段166號",
    "lat": 25.055359,
    "lng": 121.611883,
    "note": ""
  },
  {
    "id": 5901121896,
    "name": "順翔藥局",
    "phone": "02-27824332",
    "address": "台北市南港區九如里1鄰研究院路二段170號",
    "lat": 25.037849,
    "lng": 121.616894,
    "note": ""
  },
  {
    "id": 5901121903,
    "name": "景星藥局",
    "phone": "02-27838816",
    "address": "台北市南港區西新里9鄰南港路三段26號",
    "lat": 25.054342,
    "lng": 121.592399,
    "note": ""
  },
  {
    "id": 5901121912,
    "name": "成恩藥局",
    "phone": "02-27856602",
    "address": "台北市南港區成福里28鄰成福路23號",
    "lat": 25.044727,
    "lng": 121.586734,
    "note": ""
  },
  {
    "id": 5901121930,
    "name": "小藥師健保藥局",
    "phone": "02-27867002",
    "address": "台北市南港區百福里8鄰福德街320之1號",
    "lat": 25.039483,
    "lng": 121.587984,
    "note": ""
  },
  {
    "id": 5901121958,
    "name": "心亮藥局",
    "phone": "02-27881677",
    "address": "台北市南港區合成里4鄰玉成街66之7號",
    "lat": 25.046922,
    "lng": 121.581777,
    "note": ""
  },
  {
    "id": 5901121976,
    "name": "杏安藥局",
    "phone": "02-27864119",
    "address": "台北市南港區新光里4鄰昆陽街140巷16號",
    "lat": 25.049693,
    "lng": 121.593791,
    "note": ""
  },
  {
    "id": 5901121985,
    "name": "勝安藥局",
    "phone": "02-27828450",
    "address": "台北市南港區舊莊里4鄰舊莊街一段165號",
    "lat": 25.039491,
    "lng": 121.621117,
    "note": ""
  },
  {
    "id": 5901122026,
    "name": "杏一中坡藥局",
    "phone": "02-27827418",
    "address": "台北市南港區鴻福里17鄰中坡南路33號",
    "lat": 25.043143,
    "lng": 121.583384,
    "note": "國定例假日執行調劑業務"
  },
  {
    "id": 5901122035,
    "name": "成福大藥局",
    "phone": "02-27859221",
    "address": "台北市南港區萬福里11鄰成福路8號",
    "lat": 25.045777,
    "lng": 121.58587,
    "note": ""
  },
  {
    "id": 5901122044,
    "name": "心心藥局",
    "phone": "02-27862586",
    "address": "台北市南港區中研里32鄰研究院路二段76號",
    "lat": 25.045516,
    "lng": 121.615133,
    "note": "國定假日執行調劑業務"
  },
  {
    "id": 5901150011,
    "name": "南風藥局",
    "phone": "02-28320375",
    "address": "台北市士林區福佳里3鄰美崙街19號",
    "lat": 25.097156,
    "lng": 121.523331,
    "note": ""
  },
  {
    "id": 5901150057,
    "name": "菁安藥局",
    "phone": "02-28323951",
    "address": "台北市士林區美崙街13號",
    "lat": 25.0971449,
    "lng": 121.5234101,
    "note": ""
  },
  {
    "id": 5901150128,
    "name": "新興藥局",
    "phone": "02-28362643",
    "address": "台北市士林區蘭興里1鄰德行西路117號",
    "lat": 25.103977,
    "lng": 121.520621,
    "note": ""
  },
  {
    "id": 5901150146,
    "name": "坤成泰藥局",
    "phone": "02-28813903",
    "address": "台北市士林區後港里19鄰大南路412號",
    "lat": 25.089956,
    "lng": 121.516172,
    "note": ""
  },
  {
    "id": 5901150235,
    "name": "杏城藥局",
    "phone": "02-28725144",
    "address": "台北市士林區天福里20鄰天母東路24號",
    "lat": 25.117637,
    "lng": 121.532249,
    "note": ""
  },
  {
    "id": 5901150244,
    "name": "佳赫藥局",
    "phone": "02-28367202",
    "address": "台北市士林區福佳里19鄰文昌路44號",
    "lat": 25.095622,
    "lng": 121.521553,
    "note": ""
  },
  {
    "id": 5901150253,
    "name": "文祥藥局",
    "phone": "02-28623487",
    "address": "台北市士林區陽明里14鄰光華路26巷2弄2號",
    "lat": 25.137491,
    "lng": 121.542047,
    "note": ""
  },
  {
    "id": 5901150271,
    "name": "建芳藥局",
    "phone": "02-28357172",
    "address": "台北市士林區忠誠里2鄰德行東路148號",
    "lat": 25.108038,
    "lng": 121.529556,
    "note": ""
  },
  {
    "id": 5901150280,
    "name": "慈航藥局",
    "phone": "02-28815988",
    "address": "台北市士林區福德里6鄰文林路441號",
    "lat": 25.094807,
    "lng": 121.524569,
    "note": ""
  },
  {
    "id": 5901150342,
    "name": "士林三安藥局",
    "phone": "02-28812631",
    "address": "台北市士林區仁勇里6鄰大南路11號",
    "lat": 25.088981,
    "lng": 121.526009,
    "note": ""
  },
  {
    "id": 5901150351,
    "name": "啟宏藥局",
    "phone": "02-28825811",
    "address": "台北市士林區仁勇里12鄰大東路90之1號",
    "lat": 25.091459,
    "lng": 121.525628,
    "note": ""
  },
  {
    "id": 5901150397,
    "name": "博惠藥局",
    "phone": "02-28320379",
    "address": "台北市士林區華榮街16號",
    "lat": 25.0955096,
    "lng": 121.5236009,
    "note": ""
  },
  {
    "id": 5901150459,
    "name": "有德堂大藥局",
    "phone": "02-28318387",
    "address": "台北市士林區蘭興里12鄰中山北路六段227號",
    "lat": 25.108884,
    "lng": 121.525115,
    "note": ""
  },
  {
    "id": 5901150468,
    "name": "太安藥局",
    "phone": "02-28111468",
    "address": "台北市士林區富光里3鄰延平北路五段157號",
    "lat": 25.082512,
    "lng": 121.51013,
    "note": ""
  },
  {
    "id": 5901150511,
    "name": "三原藥局",
    "phone": "02-28111888",
    "address": "台北市士林區葫蘆里13鄰延平北路五段293號",
    "lat": 25.085899,
    "lng": 121.509407,
    "note": ""
  },
  {
    "id": 5901150548,
    "name": "田倉藥局",
    "phone": "02-88662188",
    "address": "台北市士林區三玉里18鄰士東路124號",
    "lat": 25.112193,
    "lng": 121.530158,
    "note": ""
  },
  {
    "id": 5901150575,
    "name": "日康藥局",
    "phone": "02-28358558",
    "address": "台北市士林區蘭雅里19鄰士東路12號",
    "lat": 25.111678,
    "lng": 121.526737,
    "note": ""
  },
  {
    "id": 5901150593,
    "name": "安寧藥局",
    "phone": "02-28803319",
    "address": "台北市士林區百齡里1鄰劍潭路91號",
    "lat": 25.082846,
    "lng": 121.519909,
    "note": "領藥時間為週一至週五9:00~12:00及16:00~20:00；週六9:00~12:00"
  },
  {
    "id": 5901150600,
    "name": "環安藥局",
    "phone": "02-28828478",
    "address": "台北市士林區後港里5鄰大南路244號",
    "lat": 25.088601,
    "lng": 121.520536,
    "note": ""
  },
  {
    "id": 5901150682,
    "name": "加赫藥局",
    "phone": "02-28336362",
    "address": "台北市士林區福佳里20鄰文昌路76號",
    "lat": 25.096463,
    "lng": 121.521215,
    "note": ""
  },
  {
    "id": 5901150762,
    "name": "麗森藥局",
    "phone": "02-28714152",
    "address": "台北市士林區天玉里4鄰天母西路51號",
    "lat": 25.118543,
    "lng": 121.526935,
    "note": ""
  },
  {
    "id": 5901150771,
    "name": "天母大和藥師藥局",
    "phone": "02-28310142",
    "address": "台北市士林區三玉里13鄰德行東路189之1號",
    "lat": 25.108967,
    "lng": 121.531665,
    "note": ""
  },
  {
    "id": 5901150815,
    "name": "陽明藥局",
    "phone": "02-28612863",
    "address": "台北市士林區陽明里9鄰菁山路10號",
    "lat": 25.137986,
    "lng": 121.546925,
    "note": ""
  },
  {
    "id": 5901151956,
    "name": "康鈺藥局",
    "phone": "02-28313915",
    "address": "台北市士林區三玉里15鄰德行東路133號",
    "lat": 25.108088,
    "lng": 121.52921,
    "note": ""
  },
  {
    "id": 5901152024,
    "name": "今欣藥局",
    "phone": "02-28713129",
    "address": "台北市士林區天玉里4鄰天母西路41巷9號",
    "lat": 25.119313,
    "lng": 121.527376,
    "note": "周日及國定假日休息"
  },
  {
    "id": 5901152051,
    "name": "士新藥局",
    "phone": "02-28331332",
    "address": "台北市士林區福佳里20鄰文昌路62號",
    "lat": 25.096049,
    "lng": 121.521379,
    "note": ""
  },
  {
    "id": 5901152079,
    "name": "資生堂藥局",
    "phone": "02-28857588",
    "address": "台北市士林區福華里6鄰承德路四段40巷17號",
    "lat": 25.081072,
    "lng": 121.522022,
    "note": ""
  },
  {
    "id": 5901152122,
    "name": "社子全民藥局",
    "phone": "02-28127412",
    "address": "台北市士林區福順里12鄰延平北路五段120號",
    "lat": 25.081694,
    "lng": 121.510565,
    "note": ""
  },
  {
    "id": 5901152131,
    "name": "康華藥局",
    "phone": "02-28743223",
    "address": "台北市士林區天山里9鄰中山北路七段14巷2號",
    "lat": 25.118636,
    "lng": 121.531073,
    "note": ""
  },
  {
    "id": 5901152186,
    "name": "詠恩藥局",
    "phone": "02-28119479",
    "address": "台北市士林區葫東里13鄰延平北路五段316號",
    "lat": 25.086193,
    "lng": 121.509575,
    "note": ""
  },
  {
    "id": 5901152293,
    "name": "安泰藥師藥局",
    "phone": "02-28166977",
    "address": "台北市士林區社子里16鄰延平北路六段83號",
    "lat": 25.088437,
    "lng": 121.508666,
    "note": "每月最後一週週六未執業"
  },
  {
    "id": 5901152453,
    "name": "家赫藥局",
    "phone": "02-28346453",
    "address": "台北市士林區聖山里11鄰忠義街80號",
    "lat": 25.106141,
    "lng": 121.531717,
    "note": ""
  },
  {
    "id": 5901152471,
    "name": "得安藥局",
    "phone": "02-28836336",
    "address": "台北市士林區仁勇里2鄰文林路140號",
    "lat": 25.088776,
    "lng": 121.52666,
    "note": ""
  },
  {
    "id": 5901152604,
    "name": "達揚藥局",
    "phone": "02-88115559",
    "address": "台北市士林區社子里16鄰社正路36號",
    "lat": 25.088771,
    "lng": 121.509901,
    "note": ""
  },
  {
    "id": 5901152640,
    "name": "仁大藥局",
    "phone": "02-88113793",
    "address": "台北市士林區社新里3鄰社子街13號",
    "lat": 25.08769,
    "lng": 121.508333,
    "note": ""
  },
  {
    "id": 5901152659,
    "name": "和樹藥局",
    "phone": "02-28821188",
    "address": "台北市士林區前港里1鄰後港街45巷1號",
    "lat": 25.084438,
    "lng": 121.522772,
    "note": ""
  },
  {
    "id": 5901152686,
    "name": "三光藥局",
    "phone": "02-28123786",
    "address": "台北市士林區葫東里13鄰延平北路五段320號",
    "lat": 25.086279,
    "lng": 121.509549,
    "note": ""
  },
  {
    "id": 5901152720,
    "name": "博信藥局",
    "phone": "02-28128295",
    "address": "台北市士林區社新里1鄰延平北路六段61號",
    "lat": 25.087878,
    "lng": 121.508764,
    "note": ""
  },
  {
    "id": 5901152739,
    "name": "芳圓藥局",
    "phone": "02-28168666",
    "address": "台北市士林區社新里6鄰社子街26之1號",
    "lat": 25.087495,
    "lng": 121.507966,
    "note": ""
  },
  {
    "id": 5901152748,
    "name": "柏雅大藥局",
    "phone": "02-88664398",
    "address": "台北市士林區德行里16鄰德行西路64號",
    "lat": 25.105058,
    "lng": 121.522685,
    "note": ""
  },
  {
    "id": 5901152793,
    "name": "信光藥局",
    "phone": "02-28366277",
    "address": "台北市士林區福佳里20鄰文昌路68號",
    "lat": 25.096194,
    "lng": 121.521358,
    "note": ""
  },
  {
    "id": 5901152837,
    "name": "文昌大藥局",
    "phone": "02-28376196",
    "address": "台北市士林區福佳里20鄰文昌路72號",
    "lat": 25.096341,
    "lng": 121.521265,
    "note": ""
  },
  {
    "id": 5901152873,
    "name": "幸福藥局",
    "phone": "02-28346650",
    "address": "台北市士林區蘭雅里1鄰德行東路109巷8號",
    "lat": 25.108121,
    "lng": 121.528394,
    "note": ""
  },
  {
    "id": 5901152882,
    "name": "天爵藥局",
    "phone": "02-28733759",
    "address": "台北市士林區天祿里11鄰中山北路六段450巷1號",
    "lat": 25.114247,
    "lng": 121.527639,
    "note": ""
  },
  {
    "id": 5901152971,
    "name": "石川藥師藥局",
    "phone": "02-28385850",
    "address": "台北市士林區聖山里17鄰忠義街70號",
    "lat": 25.105944,
    "lng": 121.53142,
    "note": "固定周日公休"
  },
  {
    "id": 5901153058,
    "name": "誼安藥局",
    "phone": "02-28851899",
    "address": "台北市士林區明勝里6鄰通河街42號",
    "lat": 25.080442,
    "lng": 121.521469,
    "note": ""
  },
  {
    "id": 5901153101,
    "name": "聖賢藥局",
    "phone": "02-28833046",
    "address": "台北市士林區後港里2鄰士商路58號",
    "lat": 25.090564,
    "lng": 121.520033,
    "note": "周一至周五8:30-22:00, 周六9:00-18:00, 周日休"
  },
  {
    "id": 5901153110,
    "name": "美麗田藥局",
    "phone": "02-28855990",
    "address": "台北市士林區明勝里7鄰通河街78號",
    "lat": 25.080901,
    "lng": 121.520436,
    "note": ""
  },
  {
    "id": 5901153245,
    "name": "大東健保藥局",
    "phone": "02-28834672",
    "address": "台北市士林區仁勇里10鄰大東路86之4號",
    "lat": 25.091314,
    "lng": 121.525672,
    "note": ""
  },
  {
    "id": 5901153263,
    "name": "健揚藥局",
    "phone": "02-28163698",
    "address": "台北市士林區葫蘆里8鄰延平北路五段251號",
    "lat": 25.084827,
    "lng": 121.509683,
    "note": ""
  },
  {
    "id": 5901153272,
    "name": "光榮藥局",
    "phone": "02-28136060",
    "address": "台北市士林區社子里8鄰社中街118號",
    "lat": 25.089901,
    "lng": 121.510345,
    "note": ""
  },
  {
    "id": 5901153325,
    "name": "天母康甯健保藥局",
    "phone": "02-28366631",
    "address": "台北市士林區蘭興里12鄰克強路8號",
    "lat": 25.108907,
    "lng": 121.524532,
    "note": ""
  },
  {
    "id": 5901153405,
    "name": "社正藥局",
    "phone": "02-28118704",
    "address": "台北市士林區社子里16鄰社正路12號",
    "lat": 25.088538,
    "lng": 121.509278,
    "note": ""
  },
  {
    "id": 5901153610,
    "name": "家安健保藥局",
    "phone": "02-28322182",
    "address": "台北市士林區蘭雅里10鄰德行東路109巷119號",
    "lat": 25.111562,
    "lng": 121.528778,
    "note": ""
  },
  {
    "id": 5901153656,
    "name": "德行盛康藥局",
    "phone": "02-28348756",
    "address": "台北市士林區聖山里4鄰德行東路206之1號",
    "lat": 25.108898,
    "lng": 121.531987,
    "note": ""
  },
  {
    "id": 5901153665,
    "name": "康佑藥局",
    "phone": "02-28119981",
    "address": "台北市士林區福順里15鄰延平北路五段176號",
    "lat": 25.082995,
    "lng": 121.510287,
    "note": ""
  },
  {
    "id": 5901153674,
    "name": "愛佳藥局",
    "phone": "02-28811199",
    "address": "台北市士林區前港里3鄰承德路四段222之1號",
    "lat": 25.088502,
    "lng": 121.521473,
    "note": ""
  },
  {
    "id": 5901153683,
    "name": "安奕藥局",
    "phone": "02-28133289",
    "address": "台北市士林區富光里11鄰葫蘆街30巷12號",
    "lat": 25.080338,
    "lng": 121.509931,
    "note": ""
  },
  {
    "id": 5901153709,
    "name": "全予藥局",
    "phone": "02-28386955",
    "address": "台北市士林區三玉里7鄰德行東路221號",
    "lat": 25.109385,
    "lng": 121.532885,
    "note": ""
  },
  {
    "id": 5901153727,
    "name": "前港盛康藥局",
    "phone": "02-28831079",
    "address": "台北市士林區前港里4鄰前港街28號",
    "lat": 25.084599,
    "lng": 121.52205,
    "note": ""
  },
  {
    "id": 5901153745,
    "name": "藥本家藥局",
    "phone": "02-28766682",
    "address": "台北市士林區天山里4鄰中山北路七段14巷26號",
    "lat": 25.118845,
    "lng": 121.532774,
    "note": ""
  },
  {
    "id": 5901153781,
    "name": "文林生活健保藥局",
    "phone": "02-28381971",
    "address": "台北市士林區舊佳里21鄰文林路562號",
    "lat": 25.097788,
    "lng": 121.523999,
    "note": ""
  },
  {
    "id": 5901153790,
    "name": "天母盛康藥局",
    "phone": "02-28720208",
    "address": "台北市士林區天福里8鄰天母東路8巷84號",
    "lat": 25.114835,
    "lng": 121.530433,
    "note": ""
  },
  {
    "id": 5901153807,
    "name": "中山盛康藥局",
    "phone": "02-28771887",
    "address": "台北市士林區天山里20鄰中山北路七段162號",
    "lat": 25.124165,
    "lng": 121.53271,
    "note": ""
  },
  {
    "id": 5901153816,
    "name": "士東台安藥局",
    "phone": "02-28315667",
    "address": "台北市士林區蘭雅里10鄰士東路86之2號",
    "lat": 25.111825,
    "lng": 121.528774,
    "note": ""
  },
  {
    "id": 5901153825,
    "name": "太和堂中西藥局",
    "phone": "02-28814122",
    "address": "台北市士林區仁勇里9鄰大東路74號",
    "lat": 25.090366,
    "lng": 121.525679,
    "note": ""
  },
  {
    "id": 5901153852,
    "name": "躍獅芝山藥局",
    "phone": "02-28365822",
    "address": "台北市士林區德行里13鄰福華路154號",
    "lat": 25.10357,
    "lng": 121.522731,
    "note": ""
  },
  {
    "id": 5901153861,
    "name": "佩佩藥局",
    "phone": "02-28382662",
    "address": "台北市士林區蘭雅里22鄰中山北路六段182號",
    "lat": 25.107587,
    "lng": 121.525201,
    "note": ""
  },
  {
    "id": 5901153870,
    "name": "容育藥局",
    "phone": "02-28113680",
    "address": "台北市士林區社子里13鄰延平北路六段8號",
    "lat": 25.087121,
    "lng": 121.509271,
    "note": ""
  },
  {
    "id": 5901153889,
    "name": "新光維康藥局",
    "phone": "02-28801011",
    "address": "台北市士林區福德里20鄰基河路250之3號",
    "lat": 25.091874,
    "lng": 121.520806,
    "note": ""
  },
  {
    "id": 5901160044,
    "name": "石牌藥局",
    "phone": "02-28214986",
    "address": "台北市北投區吉慶里13鄰石牌路一段49號",
    "lat": 25.113297,
    "lng": 121.510583,
    "note": ""
  },
  {
    "id": 5901160053,
    "name": "天蓮藥局",
    "phone": "02-28211824",
    "address": "台北市北投區榮光里9鄰石牌路一段166巷115號",
    "lat": 25.111918,
    "lng": 121.515515,
    "note": ""
  },
  {
    "id": 5901160062,
    "name": "丸三大藥局",
    "phone": "02-28230637",
    "address": "台北市北投區榮光里3鄰自強街105號",
    "lat": 25.110859,
    "lng": 121.515267,
    "note": ""
  },
  {
    "id": 5901160099,
    "name": "進春藥局",
    "phone": "02-28216938",
    "address": "台北市北投區裕民里2鄰明德路151號",
    "lat": 25.110863,
    "lng": 121.520643,
    "note": ""
  },
  {
    "id": 5901160142,
    "name": "德昇藥局",
    "phone": "02-28217565",
    "address": "台北市北投區振華里19鄰裕民二路20號",
    "lat": 25.116039,
    "lng": 121.516957,
    "note": ""
  },
  {
    "id": 5901160197,
    "name": "川秀藥局",
    "phone": "02-28270702",
    "address": "台北市北投區永明里4鄰石牌路二段99巷9號",
    "lat": 25.117921,
    "lng": 121.516637,
    "note": ""
  },
  {
    "id": 5901160222,
    "name": "新祥藥局",
    "phone": "02-28582551",
    "address": "台北市北投區關渡里16鄰知行路208號",
    "lat": 25.119352,
    "lng": 121.46682,
    "note": ""
  },
  {
    "id": 5901160240,
    "name": "福恭藥局",
    "phone": "02-28975325",
    "address": "台北市北投區中央里18鄰大業路300巷19號",
    "lat": 25.128363,
    "lng": 121.498953,
    "note": ""
  },
  {
    "id": 5901160259,
    "name": "啟春藥局",
    "phone": "02-28918244",
    "address": "台北市北投區清江里27鄰崇仁路一段102號",
    "lat": 25.125299,
    "lng": 121.501702,
    "note": ""
  },
  {
    "id": 5901160277,
    "name": "建民藥局",
    "phone": "02-28912339",
    "address": "台北市北投區長安里11鄰光明路161號",
    "lat": 25.13538,
    "lng": 121.502671,
    "note": ""
  },
  {
    "id": 5901160286,
    "name": "昌源藥局",
    "phone": "02-28928695",
    "address": "台北市北投區一德里16鄰中央北路四段485號",
    "lat": 25.128426,
    "lng": 121.469233,
    "note": ""
  },
  {
    "id": 5901160320,
    "name": "益元藥局",
    "phone": "02-28912675",
    "address": "台北市北投區中央里4鄰光明路106號",
    "lat": 25.133093,
    "lng": 121.501317,
    "note": ""
  },
  {
    "id": 5901160400,
    "name": "世全藥局",
    "phone": "02-28585378",
    "address": "台北市北投區關渡里18鄰知行路273號",
    "lat": 25.121342,
    "lng": 121.467233,
    "note": "早0000-0100,午1300-1600,晚1600-2400"
  },
  {
    "id": 5901160428,
    "name": "九福藥局",
    "phone": "02-28953009",
    "address": "台北市北投區奇岩里16鄰公舘路236號",
    "lat": 25.126125,
    "lng": 121.508068,
    "note": ""
  },
  {
    "id": 5901160517,
    "name": "弘安藥局",
    "phone": "02-28206390",
    "address": "台北市北投區裕民里16鄰懷德街33號",
    "lat": 25.112188,
    "lng": 121.519338,
    "note": ""
  },
  {
    "id": 5901160544,
    "name": "黎明藥局",
    "phone": "02-28223795",
    "address": "台北市北投區立賢里3鄰尊賢街253之1號",
    "lat": 25.118173,
    "lng": 121.506563,
    "note": "早上930至1230 下午1600至2100"
  },
  {
    "id": 5901160562,
    "name": "名山藥局",
    "phone": "02-28226101",
    "address": "台北市北投區振華里21鄰東陽街475號",
    "lat": 25.112308,
    "lng": 121.519911,
    "note": ""
  },
  {
    "id": 5901160704,
    "name": "明華藥局",
    "phone": "02-28971056",
    "address": "台北市北投區清江里4鄰清江路8號",
    "lat": 25.131565,
    "lng": 121.501464,
    "note": ""
  },
  {
    "id": 5901160802,
    "name": "美康藥局",
    "phone": "02-28281176",
    "address": "台北市北投區榮華里18鄰明德路90號",
    "lat": 25.109399,
    "lng": 121.519607,
    "note": ""
  },
  {
    "id": 5901161890,
    "name": "良興藥局",
    "phone": "02-28933360",
    "address": "台北市北投區開明里8鄰中和街286號",
    "lat": 25.140466,
    "lng": 121.50039,
    "note": ""
  },
  {
    "id": 5901161934,
    "name": "康揚藥局",
    "phone": "02-28946520",
    "address": "台北市北投區開明里1鄰中和街322號",
    "lat": 25.14108,
    "lng": 121.499763,
    "note": ""
  },
  {
    "id": 5901161961,
    "name": "聯合藥局",
    "phone": "02-28270306",
    "address": "台北市北投區吉慶里6鄰石牌路一段23號",
    "lat": 25.11293,
    "lng": 121.509913,
    "note": ""
  },
  {
    "id": 5901161998,
    "name": "玉山藥局",
    "phone": "02-28956236",
    "address": "台北市北投區長安里15鄰光明路146之2號",
    "lat": 25.134536,
    "lng": 121.5025,
    "note": ""
  },
  {
    "id": 5901162002,
    "name": "實踐藥局",
    "phone": "02-28276616",
    "address": "台北市北投區立賢里14鄰實踐街13號",
    "lat": 25.114873,
    "lng": 121.507721,
    "note": "執業時段請電洽藥局"
  },
  {
    "id": 5901162066,
    "name": "嘉禾大藥局",
    "phone": "02-28984758",
    "address": "台北市北投區開明里7鄰中和街264號",
    "lat": 25.14014,
    "lng": 121.500717,
    "note": ""
  },
  {
    "id": 5901162119,
    "name": "祐鄰藥局",
    "phone": "02-28281232",
    "address": "台北市北投區尊賢里3鄰尊賢街250號",
    "lat": 25.11707,
    "lng": 121.507286,
    "note": ""
  },
  {
    "id": 5901162173,
    "name": "小明藥局",
    "phone": "02-28928950",
    "address": "台北市北投區清江里4鄰中央南路一段69號",
    "lat": 25.131447,
    "lng": 121.501368,
    "note": "執業時段請電洽藥局"
  },
  {
    "id": 5901162182,
    "name": "祐民藥局",
    "phone": "02-28975339",
    "address": "台北市北投區中央里19鄰中央南路一段208號",
    "lat": 25.12837,
    "lng": 121.501071,
    "note": ""
  },
  {
    "id": 5901162306,
    "name": "上頤藥局",
    "phone": "02-28981230",
    "address": "台北市北投區中庸里3鄰中和街327號",
    "lat": 25.14097,
    "lng": 121.499671,
    "note": ""
  },
  {
    "id": 5901162459,
    "name": "國泰藥師藥局",
    "phone": "02-28223995",
    "address": "台北市北投區榮光里1鄰自強街139之1號",
    "lat": 25.111205,
    "lng": 121.516064,
    "note": ""
  },
  {
    "id": 5901162477,
    "name": "長宜藥局",
    "phone": "02-28216605",
    "address": "台北市北投區石牌里8鄰自強街112號",
    "lat": 25.110746,
    "lng": 121.515459,
    "note": ""
  },
  {
    "id": 5901162520,
    "name": "妮妮藥局",
    "phone": "02-28948067",
    "address": "台北市北投區清江里14鄰中央南路一段187號",
    "lat": 25.128842,
    "lng": 121.501371,
    "note": ""
  },
  {
    "id": 5901162780,
    "name": "康賢藥局",
    "phone": "02-28219295",
    "address": "台北市北投區榮光里21鄰西安街一段359號",
    "lat": 25.114229,
    "lng": 121.515354,
    "note": ""
  },
  {
    "id": 5901162806,
    "name": "大家藥局",
    "phone": "02-28959000",
    "address": "台北市北投區長安里15鄰光明路182號",
    "lat": 25.135663,
    "lng": 121.503295,
    "note": ""
  },
  {
    "id": 5901162815,
    "name": "天康大藥局",
    "phone": "02-28930168",
    "address": "台北市北投區中央里3鄰中央南路一段57號",
    "lat": 25.13192,
    "lng": 121.501427,
    "note": ""
  },
  {
    "id": 5901162833,
    "name": "維康藥局",
    "phone": "02-28206343",
    "address": "台北市北投區永欣里12鄰石牌路二段368號",
    "lat": 25.123592,
    "lng": 121.525833,
    "note": ""
  },
  {
    "id": 5901162879,
    "name": "杏嘉藥局",
    "phone": "02-28982340",
    "address": "台北市北投區清江里9鄰清江路68號",
    "lat": 25.130443,
    "lng": 121.501704,
    "note": "早0900-1200,午1200-1700,晚1700-2200"
  },
  {
    "id": 5901163027,
    "name": "躍獅光明藥局",
    "phone": "02-28915993",
    "address": "台北市北投區林泉里12鄰光明路283號",
    "lat": 25.136952,
    "lng": 121.511042,
    "note": ""
  },
  {
    "id": 5901163107,
    "name": "小豬藥局",
    "phone": "02-28217099",
    "address": "台北市北投區榮光里14鄰石牌路一段166巷83號",
    "lat": 25.112622,
    "lng": 121.514979,
    "note": ""
  },
  {
    "id": 5901163152,
    "name": "石牌健康人生藥局",
    "phone": "02-28225169",
    "address": "台北市北投區永明里4鄰石牌路二段187號",
    "lat": 25.118676,
    "lng": 121.518327,
    "note": "除夕下午3點休息至初三10點"
  },
  {
    "id": 5901163214,
    "name": "鴻恩藥局",
    "phone": "02-28926410",
    "address": "台北市北投區清江里10鄰中央南路一段129號",
    "lat": 25.130151,
    "lng": 121.501195,
    "note": ""
  },
  {
    "id": 5901163241,
    "name": "昱仁藥局",
    "phone": "02-28979050",
    "address": "台北市北投區中央里4鄰光明路102號",
    "lat": 25.133095,
    "lng": 121.501218,
    "note": ""
  },
  {
    "id": 5901163250,
    "name": "關渡松藥局",
    "phone": "02-28584824",
    "address": "台北市北投區關渡里19鄰知行路247號",
    "lat": 25.120736,
    "lng": 121.467068,
    "note": ""
  },
  {
    "id": 5901163269,
    "name": "佳祈健保藥局",
    "phone": "02-28232535",
    "address": "台北市北投區榮華里15鄰明德路144號",
    "lat": 25.110468,
    "lng": 121.520766,
    "note": ""
  },
  {
    "id": 5901163296,
    "name": "天禧大藥局",
    "phone": "02-28213558",
    "address": "台北市北投區尊賢里10鄰實踐街35號",
    "lat": 25.115209,
    "lng": 121.508706,
    "note": ""
  },
  {
    "id": 5901163312,
    "name": "秝安藥局",
    "phone": "02-28215399",
    "address": "台北市北投區吉慶里13鄰石牌路一段69號",
    "lat": 25.113566,
    "lng": 121.51108,
    "note": ""
  },
  {
    "id": 5901163330,
    "name": "萬信藥局",
    "phone": "02-28583083",
    "address": "台北市北投區關渡里2鄰知行路305號",
    "lat": 25.122144,
    "lng": 121.467192,
    "note": ""
  },
  {
    "id": 5901163376,
    "name": "北投春天藥局",
    "phone": "02-28916668",
    "address": "台北市北投區中央里9鄰中央南路一段76號",
    "lat": 25.131345,
    "lng": 121.501126,
    "note": ""
  },
  {
    "id": 5901163394,
    "name": "致遠春天藥局",
    "phone": "02-28253258",
    "address": "台北市北投區石牌里8鄰致遠一路一段132號",
    "lat": 25.110508,
    "lng": 121.514881,
    "note": ""
  },
  {
    "id": 5901170040,
    "name": "惠群藥局",
    "phone": "02-27679234",
    "address": "台北市信義區新仁里12鄰忠孝東路四段559巷38號",
    "lat": 25.043086,
    "lng": 121.563766,
    "note": ""
  },
  {
    "id": 5901170059,
    "name": "必欣藥局",
    "phone": "02-27225060",
    "address": "台北市信義區六合里3鄰松仁路264號",
    "lat": 25.024253,
    "lng": 121.569584,
    "note": ""
  },
  {
    "id": 5901170139,
    "name": "福華藥局",
    "phone": "02-27208527",
    "address": "台北市信義區三張里19鄰吳興街281巷3號",
    "lat": 25.026559,
    "lng": 121.564349,
    "note": ""
  },
  {
    "id": 5901170184,
    "name": "臺陽藥局",
    "phone": "02-27283403",
    "address": "台北市信義區大道里14鄰大道路61號",
    "lat": 25.041359,
    "lng": 121.582336,
    "note": ""
  },
  {
    "id": 5901170255,
    "name": "松隆藥局",
    "phone": "02-27684033",
    "address": "台北市信義區四育里6鄰虎林街65號",
    "lat": 25.046042,
    "lng": 121.577073,
    "note": ""
  },
  {
    "id": 5901170264,
    "name": "杏康藥局",
    "phone": "02-23457422",
    "address": "台北市信義區廣居里20鄰忠孝東路五段372巷27弄68之2號",
    "lat": 25.039756,
    "lng": 121.575298,
    "note": ""
  },
  {
    "id": 5901170282,
    "name": "光成藥局",
    "phone": "02-27587069",
    "address": "台北市信義區西村里24鄰光復南路457號",
    "lat": 25.034485,
    "lng": 121.55774,
    "note": ""
  },
  {
    "id": 5901170335,
    "name": "慧生藥局",
    "phone": "02-27647138",
    "address": "台北市信義區長春里1鄰松山路310號",
    "lat": 25.042561,
    "lng": 121.577657,
    "note": ""
  },
  {
    "id": 5901170399,
    "name": "文豐藥局",
    "phone": "02-27272709",
    "address": "台北市信義區松光里20鄰松山路543號",
    "lat": 25.03765,
    "lng": 121.578271,
    "note": ""
  },
  {
    "id": 5901170406,
    "name": "鼎泰藥局",
    "phone": "02-27620617",
    "address": "台北市信義區興雅里6鄰基隆路一段155號",
    "lat": 25.042216,
    "lng": 121.565336,
    "note": "周一至周五 9：30-21：30"
  },
  {
    "id": 5901170433,
    "name": "松山大藥局",
    "phone": "02-27620624",
    "address": "台北市信義區永春里21鄰永吉路436號",
    "lat": 25.045264,
    "lng": 121.578132,
    "note": ""
  },
  {
    "id": 5901170442,
    "name": "大順安藥局",
    "phone": "02-27360639",
    "address": "台北市信義區景聯里21鄰吳興街84號",
    "lat": 25.030562,
    "lng": 121.560631,
    "note": ""
  },
  {
    "id": 5901170648,
    "name": "立信藥局",
    "phone": "02-27687754",
    "address": "台北市信義區永春里13鄰松山路403號",
    "lat": 25.041443,
    "lng": 121.577991,
    "note": ""
  },
  {
    "id": 5901170906,
    "name": "吳興藥局",
    "phone": "02-27208328",
    "address": "台北市信義區三張里19鄰吳興街279號",
    "lat": 25.026581,
    "lng": 121.564193,
    "note": ""
  },
  {
    "id": 5901170915,
    "name": "杏仁藥局",
    "phone": "02-27262541",
    "address": "台北市信義區中坡里11鄰大道路135號",
    "lat": 25.039009,
    "lng": 121.583446,
    "note": ""
  },
  {
    "id": 5901172071,
    "name": "百康藥局",
    "phone": "02-27364377",
    "address": "台北市信義區嘉興里4鄰基隆路二段131之20號",
    "lat": 25.02751,
    "lng": 121.556349,
    "note": ""
  },
  {
    "id": 5901172160,
    "name": "佑華藥局",
    "phone": "02-27595719",
    "address": "台北市信義區松光里1鄰忠孝東路五段508之4號",
    "lat": 25.040755,
    "lng": 121.578718,
    "note": ""
  },
  {
    "id": 5901172179,
    "name": "新和平藥局",
    "phone": "02-23460951",
    "address": "台北市信義區國業里3鄰虎林街198號",
    "lat": 25.038441,
    "lng": 121.576883,
    "note": "108年2月28日周四3月1日3月2日.有上班."
  },
  {
    "id": 5901172197,
    "name": "得揚藥局",
    "phone": "02-87884667",
    "address": "台北市信義區廣居里7鄰忠孝東路五段452號",
    "lat": 25.04069,
    "lng": 121.576322,
    "note": ""
  },
  {
    "id": 5901172213,
    "name": "華泰藥局",
    "phone": "02-27601992",
    "address": "台北市信義區四維里9鄰虎林街82巷5號",
    "lat": 25.043348,
    "lng": 121.576905,
    "note": ""
  },
  {
    "id": 5901172240,
    "name": "德康大藥局",
    "phone": "02-27272502",
    "address": "台北市信義區松光里22鄰松山路541巷21號",
    "lat": 25.037942,
    "lng": 121.578984,
    "note": ""
  },
  {
    "id": 5901172268,
    "name": "皇佳大藥局",
    "phone": "02-27269868",
    "address": "台北市信義區松光里22鄰松山路541巷19號",
    "lat": 25.037927,
    "lng": 121.578889,
    "note": ""
  },
  {
    "id": 5901172508,
    "name": "好康藥局",
    "phone": "02-27232979",
    "address": "台北市信義區三張里20鄰莊敬路414號",
    "lat": 25.027157,
    "lng": 121.566199,
    "note": ""
  },
  {
    "id": 5901172544,
    "name": "麗中藥局",
    "phone": "02-27594416",
    "address": "台北市信義區中坡里10鄰福德街217號",
    "lat": 25.038409,
    "lng": 121.58474,
    "note": ""
  },
  {
    "id": 5901172580,
    "name": "文興藥局",
    "phone": "02-27590989",
    "address": "台北市信義區中行里12鄰福德街245號",
    "lat": 25.038739,
    "lng": 121.585857,
    "note": ""
  },
  {
    "id": 5901172651,
    "name": "康杏藥局",
    "phone": "02-27591510",
    "address": "台北市信義區中行里32鄰福德街306號",
    "lat": 25.039306,
    "lng": 121.58736,
    "note": ""
  },
  {
    "id": 5901172688,
    "name": "昆陽藥局",
    "phone": "02-27274814",
    "address": "台北市信義區大道里1鄰林口街230號",
    "lat": 25.04248,
    "lng": 121.581313,
    "note": ""
  },
  {
    "id": 5901172697,
    "name": "綠杏大藥局",
    "phone": "02-27582378",
    "address": "台北市信義區三張里25鄰吳興街241號",
    "lat": 25.02745,
    "lng": 121.563493,
    "note": ""
  },
  {
    "id": 5901172704,
    "name": "鴻濟藥局",
    "phone": "02-27645331",
    "address": "台北市信義區五全里8鄰永吉路326巷2號",
    "lat": 25.045069,
    "lng": 121.575391,
    "note": ""
  },
  {
    "id": 5901172740,
    "name": "信桉藥局",
    "phone": "02-87860005",
    "address": "台北市信義區景新里3鄰莊敬路236號",
    "lat": 25.029598,
    "lng": 121.562088,
    "note": ""
  },
  {
    "id": 5901172786,
    "name": "安佑藥局",
    "phone": "02-27222236",
    "address": "台北市信義區三張里25鄰吳興街247號",
    "lat": 25.027331,
    "lng": 121.56359,
    "note": ""
  },
  {
    "id": 5901172820,
    "name": "安心藥局",
    "phone": "02-27474992",
    "address": "台北市信義區興雅里14鄰永吉路30巷148弄4之1號",
    "lat": 25.042658,
    "lng": 121.568544,
    "note": ""
  },
  {
    "id": 5901172839,
    "name": "九州藥局",
    "phone": "02-87323331",
    "address": "台北市信義區黎平里5鄰和平東路三段239號",
    "lat": 25.022936,
    "lng": 121.554315,
    "note": ""
  },
  {
    "id": 5901172857,
    "name": "永吉藥局",
    "phone": "02-87874043",
    "address": "台北市信義區五常里4鄰永吉路213號",
    "lat": 25.045715,
    "lng": 121.573872,
    "note": ""
  },
  {
    "id": 5901172924,
    "name": "松仁藥局",
    "phone": "02-27238626",
    "address": "台北市信義區三犁里1鄰松仁路233號",
    "lat": 25.026174,
    "lng": 121.568769,
    "note": "9月24日早晚診"
  },
  {
    "id": 5901172933,
    "name": "喜樂藥局",
    "phone": "02-27275797",
    "address": "台北市信義區國業里2鄰松德路125號",
    "lat": 25.037516,
    "lng": 121.575287,
    "note": ""
  },
  {
    "id": 5901172964,
    "name": "榮泰藥局",
    "phone": "02-77296777",
    "address": "台北市信義區正和里14鄰光復南路419巷19號",
    "lat": 25.036586,
    "lng": 121.558151,
    "note": ""
  },
  {
    "id": 5901173041,
    "name": "皇昇大藥局",
    "phone": "02-27663488",
    "address": "台北市信義區四維里8鄰松山路210號",
    "lat": 25.045088,
    "lng": 121.577633,
    "note": ""
  },
  {
    "id": 5901173050,
    "name": "貴臨藥局",
    "phone": "02-27493768",
    "address": "台北市信義區四維里11鄰永吉路326巷19號",
    "lat": 25.044574,
    "lng": 121.575546,
    "note": ""
  },
  {
    "id": 5901173176,
    "name": "三立藥局",
    "phone": "02-27271401",
    "address": "台北市信義區松光里2鄰忠孝東路五段492巷34號",
    "lat": 25.03965,
    "lng": 121.578304,
    "note": ""
  },
  {
    "id": 5901173201,
    "name": "大鳥藥局",
    "phone": "02-23455025",
    "address": "台北市信義區三張里27鄰莊敬路354號",
    "lat": 25.027717,
    "lng": 121.564342,
    "note": ""
  },
  {
    "id": 5901173210,
    "name": "濟生中西藥局",
    "phone": "02-27358452",
    "address": "台北市信義區黎順里16鄰崇德街41號",
    "lat": 25.024363,
    "lng": 121.554199,
    "note": ""
  },
  {
    "id": 5901173238,
    "name": "正和藥局",
    "phone": "02-23455186",
    "address": "台北市信義區三張里25鄰吳興街225巷6號",
    "lat": 25.027818,
    "lng": 121.563422,
    "note": ""
  },
  {
    "id": 5901173283,
    "name": "上禾藥師藥局",
    "phone": "02-27592686",
    "address": "台北市信義區松光里9鄰林口街27號",
    "lat": 25.037414,
    "lng": 121.579164,
    "note": ""
  },
  {
    "id": 5901173292,
    "name": "荐荃藥師藥局",
    "phone": "02-27492866",
    "address": "台北市信義區四維里10鄰虎林街68之3號",
    "lat": 25.044479,
    "lng": 121.577035,
    "note": ""
  },
  {
    "id": 5901173372,
    "name": "新永春藥局",
    "phone": "02-27667385",
    "address": "台北市信義區富臺里13鄰忠孝東路五段423巷1號",
    "lat": 25.041263,
    "lng": 121.575264,
    "note": ""
  },
  {
    "id": 5901173390,
    "name": "馨馨藥局",
    "phone": "02-27491208",
    "address": "台北市信義區四維里16鄰虎林街82巷19號",
    "lat": 25.043364,
    "lng": 121.576377,
    "note": ""
  },
  {
    "id": 5901173407,
    "name": "康怡健保藥局",
    "phone": "02-27206193",
    "address": "台北市信義區惠安里19鄰吳興街467巷2弄12號",
    "lat": 25.023808,
    "lng": 121.569529,
    "note": ""
  },
  {
    "id": 5901173498,
    "name": "御安藥局",
    "phone": "02-27323997",
    "address": "台北市信義區黎忠里4鄰和平東路三段359號",
    "lat": 25.020377,
    "lng": 121.557037,
    "note": ""
  },
  {
    "id": 5901173587,
    "name": "新興健保藥局",
    "phone": "02-27494892",
    "address": "台北市信義區敦厚里19鄰永吉路30巷113號",
    "lat": 25.043242,
    "lng": 121.568867,
    "note": ""
  },
  {
    "id": 5901173603,
    "name": "松德盛康藥局",
    "phone": "02-87891622",
    "address": "台北市信義區安康里4鄰松德路40號",
    "lat": 25.038958,
    "lng": 121.57669,
    "note": ""
  },
  {
    "id": 5901173658,
    "name": "杏一永春藥局",
    "phone": "02-27495938",
    "address": "台北市信義區四維里9鄰松山路292巷17號",
    "lat": 25.043337,
    "lng": 121.577271,
    "note": ""
  },
  {
    "id": 5901173676,
    "name": "杏一光復藥局",
    "phone": "02-87804626",
    "address": "台北市信義區西村里26鄰光復南路449之1號",
    "lat": 25.034881,
    "lng": 121.557794,
    "note": ""
  },
  {
    "id": 5901173685,
    "name": "富熙仁康藥局",
    "phone": "02-27587608",
    "address": "台北市信義區六合里3鄰松仁路260號",
    "lat": 25.024319,
    "lng": 121.569545,
    "note": ""
  },
  {
    "id": 5901173694,
    "name": "洪暘藥局",
    "phone": "02-27337099",
    "address": "台北市信義區黎平里13鄰富陽街86號",
    "lat": 25.021274,
    "lng": 121.55643,
    "note": ""
  },
  {
    "id": 5901173701,
    "name": "壹間藥師藥局",
    "phone": "02-27672833",
    "address": "台北市信義區長春里18鄰虎林街120巷148號",
    "lat": 25.042133,
    "lng": 121.574154,
    "note": ""
  },
  {
    "id": 5901173710,
    "name": "專品光復藥局",
    "phone": "02-27586682",
    "address": "台北市信義區中興里14鄰光復南路467之1號",
    "lat": 25.033838,
    "lng": 121.55767,
    "note": ""
  },
  {
    "id": 5901173729,
    "name": "康健信安藥局",
    "phone": "02-87324166",
    "address": "台北市信義區黎平里10鄰信安街151號",
    "lat": 25.022893,
    "lng": 121.555409,
    "note": ""
  },
  {
    "id": 5901173738,
    "name": "尚頤中西藥局",
    "phone": "02-27253818",
    "address": "台北市信義區廣居里27鄰虎林街145號",
    "lat": 25.039594,
    "lng": 121.576721,
    "note": ""
  },
  {
    "id": 5901173747,
    "name": "躍獅興雅藥局",
    "phone": "02-87808429",
    "address": "台北市信義區安康里7鄰松德路128號",
    "lat": 25.037341,
    "lng": 121.574482,
    "note": ""
  },
  {
    "id": 5901173756,
    "name": "信義盛康藥局",
    "phone": "02-23460521",
    "address": "台北市信義區五全里6鄰永吉路286號",
    "lat": 25.045378,
    "lng": 121.574421,
    "note": "國定假日仍執行調劑業務"
  },
  {
    "id": 5901173765,
    "name": "上好藥師藥局",
    "phone": "02-27677088",
    "address": "台北市信義區敦厚里18鄰永吉路30巷101弄48號",
    "lat": 25.043431,
    "lng": 121.570103,
    "note": ""
  },
  {
    "id": 5901173774,
    "name": "立赫北醫藥局",
    "phone": "02-27320100",
    "address": "台北市信義區景聯里9鄰吳興街118巷26弄17號",
    "lat": 25.030065,
    "lng": 121.559898,
    "note": ""
  },
  {
    "id": 5901173783,
    "name": "北一健康人生藥局",
    "phone": "02-27583945",
    "address": "台北市信義區三張里25鄰吳興街255號",
    "lat": 25.027153,
    "lng": 121.563734,
    "note": ""
  },
  {
    "id": 5901173792,
    "name": "柏愛藥局",
    "phone": "02-27325472",
    "address": "台北市信義區嘉興里4鄰基隆路二段131之9號",
    "lat": 25.027881,
    "lng": 121.556736,
    "note": ""
  },
  {
    "id": 5901173809,
    "name": "愛維喜藥局",
    "phone": "02-27586989",
    "address": "台北市信義區景新里4鄰莊敬路278號",
    "lat": 25.028823,
    "lng": 121.562707,
    "note": ""
  },
  {
    "id": 5901173818,
    "name": "博亞藥局",
    "phone": "02-27580506",
    "address": "台北市信義區三張里7鄰莊敬路462號",
    "lat": 25.026719,
    "lng": 121.567728,
    "note": ""
  },
  {
    "id": 5901173827,
    "name": "松美藥局",
    "phone": "02-27651099",
    "address": "台北市信義區永吉里1鄰市民大道六段320號",
    "lat": 25.048771,
    "lng": 121.579748,
    "note": ""
  },
  {
    "id": 5901180037,
    "name": "崇信藥局",
    "phone": "02-23417557",
    "address": "台北市中正區幸福里9鄰齊東街88號",
    "lat": 25.041624,
    "lng": 121.527151,
    "note": ""
  },
  {
    "id": 5901180055,
    "name": "日生大藥局",
    "phone": "02-23031393",
    "address": "台北市中正區龍興里17鄰汀州路一段53號",
    "lat": 25.030257,
    "lng": 121.507648,
    "note": ""
  },
  {
    "id": 5901180108,
    "name": "三元藥局",
    "phone": "02-23052839",
    "address": "台北市中正區龍興里7鄰三元街158號",
    "lat": 25.028001,
    "lng": 121.510872,
    "note": ""
  },
  {
    "id": 5901180126,
    "name": "民生藥局",
    "phone": "02-23416470",
    "address": "台北市中正區幸市里6鄰濟南路二段45之1號",
    "lat": 25.040599,
    "lng": 121.53054,
    "note": ""
  },
  {
    "id": 5901193025,
    "name": "華達藥局",
    "phone": "02-23082785",
    "address": "台北市萬華區綠堤里7鄰環河南路二段171號",
    "lat": 25.032955,
    "lng": 121.492362,
    "note": ""
  },
  {
    "id": 5901193070,
    "name": "榮勝藥局",
    "phone": "02-23331121",
    "address": "台北市萬華區新安里18鄰萬大路233號",
    "lat": 25.026491,
    "lng": 121.500595,
    "note": ""
  },
  {
    "id": 5901193105,
    "name": "安誠貴陽藥局",
    "phone": "02-23812190",
    "address": "台北市萬華區富民里4鄰貴陽街二段148號",
    "lat": 25.040171,
    "lng": 121.501571,
    "note": ""
  },
  {
    "id": 5901193123,
    "name": "千誠北護藥局",
    "phone": "02-23123530",
    "address": "台北市萬華區新起里4鄰內江街114號",
    "lat": 25.041525,
    "lng": 121.503407,
    "note": ""
  },
  {
    "id": 5901193132,
    "name": "松本藥局",
    "phone": "02-23029559",
    "address": "台北市萬華區富民里17鄰西昌街233號",
    "lat": 25.037227,
    "lng": 121.500654,
    "note": "1/24-1/27 春節休假"
  },
  {
    "id": 5901193150,
    "name": "日森人文藥局",
    "phone": "02-23082100",
    "address": "台北市萬華區青山里21鄰和平西路三段149號",
    "lat": 25.035427,
    "lng": 121.49877,
    "note": ""
  },
  {
    "id": 5901193169,
    "name": "柏祥藥局",
    "phone": "02-23018272",
    "address": "台北市萬華區新安里1鄰西藏路141號",
    "lat": 25.029443,
    "lng": 121.501673,
    "note": "1/24-1/29 春節休假"
  },
  {
    "id": 5901193178,
    "name": "展源健康藥局",
    "phone": "02-23035179",
    "address": "台北市萬華區新和里29鄰國興路104號",
    "lat": 25.027434,
    "lng": 121.505405,
    "note": ""
  },
  {
    "id": 5901193187,
    "name": "富安藥局",
    "phone": "02-23377878",
    "address": "台北市萬華區華中里3鄰萬大路426號",
    "lat": 25.02096,
    "lng": 121.498114,
    "note": ""
  },
  {
    "id": 5901193196,
    "name": "青年宏越藥局",
    "phone": "02-23011037",
    "address": "台北市萬華區新和里6鄰青年路44號",
    "lat": 25.025504,
    "lng": 121.504164,
    "note": ""
  },
  {
    "id": 5901193221,
    "name": "正盛藥局",
    "phone": "02-23050386",
    "address": "台北市萬華區新和里25鄰中華路二段434之1號",
    "lat": 25.027077,
    "lng": 121.5064,
    "note": ""
  },